UNITID,name_x,address,city,state,zipcode,highest_level_offered,HBCU,locale,category,county,category_desc,longitude,latitude,room_cost,board_cost,application_fee,in_tuition,in_fees,out_tuition,out_fees,EFFYLEV,total_students,total_men,total_women,student_faculty_ratio,num_students_financial_aid,num_students_receiving_aid_federal,total_federal_aid_awarded,total_aid_awarded,num_pell_grants,total_pell_grants,num_students_receiving_aid_state_local,total_state_local_aid_awarded,num_students_receiving_institutional_aid,total_institutional_aid_awarded,num_students_loans,total_loans_awarded,total_scholarships_awarded,total_in_tuition_fees,total_out_tuition_fees,name_y,retention,predicted_retention,diff
100654,Alabama A & M University,4900 Meridian Street,Normal,AL,35762,9,1,City: Midsize,2,Madison County,"Degree-granting, primarily baccalaureate or above",-86.568502,34.783368,3682,3728,30,8610,1134,17220,1134,2,5343,2279,3064,20,5039,3781,26570635,42706297,3561,17821852,62,451452,870,7181757,922,5925868,5154738,9744,18354,Alabama A & M University,61,74.02,-13.02
100663,University of Alabama at Birmingham,Administration Bldg Suite 1070,Birmingham,AL,35294-0110,9,2,City: Midsize,2,Jefferson County,"Degree-granting, primarily baccalaureate or above",-86.799345,33.505697,7532,4150,30,8568,0,19704,0,2,14445,5883,8562,19,13134,6734,49900764,68096492,4770,24210267,42,78664,1710,13472311,1217,8524367,12752510,8568,19704,University of Alabama at Birmingham,82,77.56,4.44
100690,Amridge University,1200 Taylor Rd,Montgomery,AL,36117-3553,9,2,City: Midsize,2,Montgomery County,"Degree-granting, primarily baccalaureate or above",-86.17401,32.362609,0,0,50,9000,900,9000,900,2,440,152,288,12,318,285,2466263,1182194,244,783044,3,1290,5,9800,5,21749,1688138,9900,9900,Amridge University,72,62.30,9.70
100706,University of Alabama in Huntsville,301 Sparkman Dr,Huntsville,AL,35899,9,2,City: Midsize,2,Madison County,"Degree-granting, primarily baccalaureate or above",-86.640449,34.724557,0,0,30,9730,984,21378,984,2,8145,4612,3533,17,7090,2972,19900198,41059715,1913,8194441,12,36056,1104,11733270,621,3911265,7183827,10714,22362,University of Alabama in Huntsville,83,77.77,5.23
100724,Alabama State University,915 S Jackson Street,Montgomery,AL,36104-0271,9,1,City: Midsize,2,Montgomery County,"Degree-granting, primarily baccalaureate or above",-86.295677,32.364317,3346,2076,25,8328,2740,16656,2740,2,4732,1826,2906,15,4208,3301,35356628,31359053,3134,14141019,72,740777,393,2942281,720,4830461,4413236,11068,19396,Alabama State University,59,68.24,-9.24
100733,University of Alabama System Office,500 University Blvd. East,Tuscaloosa,AL,35401,9,2,City: Midsize,-2,Tuscaloosa County,-2,-87.529594,33.207015,0,0,0,9450,551,13356,576,2,671.5,220,403.5,14,584.5,226,1475790,2060116.5,281.5,1167639,12,27016,19,27623,54,342649,1688138,10001,13932,University of Alabama System Office,72,71.39,0.61
100751,The University of Alabama,739 University Blvd,Tuscaloosa,AL,35487-0166,9,2,City: Midsize,2,Tuscaloosa County,"Degree-granting, primarily baccalaureate or above",-87.545978,33.211875,5750,3802,40,10780,0,29230,0,2,36237,16057,20180,22,33196,12823,85313296,290118217,5982,27170630,44,29050,4226,73804268,3157,30485759,16824156,10780,29230,The University of Alabama,88,84.06,3.94
100760,Central Alabama Community College,1675 Cherokee Rd,Alexander City,AL,35010,3,2,Town: Distant,4,Tallapoosa County,"Degree-granting, Associates and certificates",-85.945266,32.92478,0,0,0,3870,870,7740,870,2,2417,1032,1385,18,1835,386,1942522,5453476,804,3383751,17,18321,104,569482,61,259142,1542428,4740,8610,Central Alabama Community College,55,58.87,-3.87
100812,Athens State University,300 N Beaty St,Athens,AL,35611,7,2,Town: Fringe,2,Limestone County,"Degree-granting, primarily baccalaureate or above",-86.964698,34.806793,0,0,30,6060,750,12120,750,2,3947,1316,2631,15,2967,1507,13066712,6402942,1253,5825730,12,27016,19,27623,54,342649,1688138,6810,12870,Athens State University,72,62.27,9.73
100830,Auburn University at Montgomery,7440 East Drive,Montgomery,AL,36117-3596,9,2,City: Midsize,2,Montgomery County,"Degree-granting, primarily baccalaureate or above",-86.177544,32.36736,4580,2400,0,7536,868,16944,868,2,5246,1895,3351,17,4313,2389,16935446,23131180,1977,9843336,12,6900,538,1797389,346,1950997,2738088,8404,17812,Auburn University at Montgomery,67,64.60,2.40
100858,Auburn University, ,Auburn,AL,36849,9,2,City: Small,2,Lee County,"Degree-granting, primarily baccalaureate or above",-85.488258,32.599378,7860,5472,50,9624,1652,28872,1652,2,25195,13085,12110,19,23964,7595,49988087,113945838,3684,17071265,44,96593,2939,26187523,1516,12544487,17026232,11276,30524,Auburn University,90,83.69,6.31
100937,Birmingham Southern College,900 Arkadelphia Road,Birmingham,AL,35254,5,2,City: Midsize,2,Jefferson County,"Degree-granting, primarily baccalaureate or above",-86.850552,33.513774,7000,5500,50,16402,1248,16402,1248,2,1316,639,677,12,1283,586,4064522,33588529,284,1252983,174,159270,349,8240428,189,1160978,1688138,17650,17650,Birmingham Southern College,80,75.67,4.33
101028,Chattahoochee Valley Community College,2602 College Drive,Phenix City,AL,36869,3,2,Rural: Fringe,4,Russell County,"Degree-granting, Associates and certificates",-85.031485,32.42391,0,0,0,3870,868,7740,868,2,2020,807,1213,17,1424,307,1865400,5587527,778,3501519,8,23069,127,606195,37,157845,1402489,4738,8608,Chattahoochee Valley Community College,54,57.93,-3.93
101073,Concordia College Alabama,1712 Broad Street,Selma,AL,36701,5,1,Town: Distant,-2,Dallas County,-2,-87.019145,32.425647,0,0,20,9450,551,13356,576,2,671.5,220,403.5,14,584.5,226,1475790,2060116.5,281.5,1167639,12,27016,19,27623,54,342649,1688138,10001,13932,Concordia College Alabama,72,70.66,1.34
101116,South University-Montgomery,5355 Vaughn Rd,Montgomery,AL,36116,9,2,City: Midsize,2,Montgomery County,"Degree-granting, primarily baccalaureate or above",-86.216488,32.342684,0,0,0,16920,94,16920,94,2,561,145,416,10,369,243,2346477,1793421,238,975758,0,0,5,17192,8,62000,1688138,17014,17014,South University-Montgomery,33,61.61,-28.61
101143,Enterprise State Community College,600 Plaza Drive,Enterprise,AL,36330-1300,3,2,Town: Distant,4,Coffee County,"Degree-granting, Associates and certificates",-85.836956,31.297496,0,0,0,3870,870,7740,870,2,2461,1272,1189,18,1778,270,1290764,5370685,748,3192953,4,2000,101,321796,58,292263,1223812,4740,8610,Enterprise State Community College,55,57.87,-2.87
101161,Coastal Alabama Community College,1900 U S Highway 31 South,Bay Minette,AL,36507-2698,3,2,Town: Distant,4,Baldwin County,"Degree-granting, Associates and certificates",-87.778193,30.851343,0,0,0,3870,870,7740,870,2,8415,3544,4871,22,7073,1581,8257400,21263652,2614,11553825,77,83507,635,3262162,371,2257550,6612109,4740,8610,Coastal Alabama Community College,56,61.24,-5.24
101189,Faulkner University,5345 Atlanta Hwy,Montgomery,AL,36109-3390,9,2,City: Midsize,2,Montgomery County,"Degree-granting, primarily baccalaureate or above",-86.21641,32.384181,3800,3950,25,19880,1810,19880,1810,2,3250,1261,1989,12,2672,1600,12113803,17237254,1306,6016505,203,184496,297,2788718,237,1409132,1688138,21690,21690,Faulkner University,54,63.37,-9.37
101240,Gadsden State Community College,1001 George Wallace Dr,Gadsden,AL,35903,3,1,City: Small,4,Etowah County,"Degree-granting, Associates and certificates",-85.991438,33.994001,0,0,0,3870,930,7890,930,2,6790,2828,3962,17,4979,0,0,16624463,2461,12276909,36,59694,195,726589,25,116137,3838752,4800,8820,Gadsden State Community College,55,59.55,-4.55
101277,New Beginning College of Cosmetology,421 Martling Road,Albertville,AL,35951,2,2,Town: Distant,6,Marshall County,"Nondegree-granting, sub-baccalaureate",-86.196931,34.27871,0,0,0,9450,551,13356,576,2,137,3,134,20,137,74,410161,434160,101,434160,0,0,0,0,27,191517,1688138,10001,13932,New Beginning College of Cosmetology,97,73.26,23.74
101286,George C Wallace Community College-Dothan,1141 Wallace Drive,Dothan,AL,36303-9234,3,2,City: Small,4,Dale County,"Degree-granting, Associates and certificates",-85.465836,31.315274,0,0,0,3870,810,7740,810,2,6237,2260,3977,17,4645,0,0,21060231,2292,15181264,66,164878,162,773650,19,110230,4135148,4680,8550,George C Wallace Community College-Dothan,58,59.57,-1.57
101295,George C Wallace State Community College-Hanceville,801 Main St NW,Hanceville,AL,35077-2000,3,2,Town: Distant,4,Cullman County,"Degree-granting, Associates and certificates",-86.781935,34.072439,2600,2000,0,3870,870,7740,870,2,7300,2707,4593,16,5301,1594,8846673,15879572,2568,13057020,20,90986,242,796430,309,1451165,3619571,4740,8610,George C Wallace State Community College-Hanceville,63,59.71,3.29
101301,George C Wallace State Community College-Selma,3000 Earl Goodwin Parkway,Selma,AL,36703-2808,3,2,Town: Distant,4,Dallas County,"Degree-granting, Associates and certificates",-87.013294,32.445917,0,0,0,3870,570,7740,570,2,2486,924,1562,13,1471,0,0,6515100,984,5356221,2,7640,61,234354,0,0,1652409,4440,8310,George C Wallace State Community College-Selma,63,57.88,5.12
101365,Herzing University-Birmingham,280 West Valley Ave,Birmingham,AL,35209,8,2,Suburb: Large,3,Jefferson County,"Degree-granting, not primarily baccalaureate or above",-86.832465,33.468466,0,0,0,13130,870,13130,870,2,1019,262,757,14,540,410,3169137,1815091,344,1271925,1,342,3,30239,10,59528,1688138,14000,14000,Herzing University-Birmingham,50,49.57,0.43
101435,Huntingdon College,1500 East Fairview Avenue,Montgomery,AL,36106-2148,5,2,City: Midsize,2,Montgomery County,"Degree-granting, primarily baccalaureate or above",-86.284366,32.351034,0,0,0,24595,1425,24595,1425,2,1249,601,648,14,1102,782,5702781,13287530,486,2241545,168,151986,294,3563946,227,1602159,1688138,26020,26020,Huntingdon College,67,67.16,-0.16
101453,Heritage Christian University,3625 Helton Dr,Florence,AL,35630-9977,7,2,City: Small,2,Lauderdale County,"Degree-granting, primarily baccalaureate or above",-87.663051,34.856153,4740,0,35,10152,1080,10152,1080,2,66,63,3,8,58,2,9650,395508,32,92230,0,0,6,71157,0,0,1688138,11232,11232,Heritage Christian University,100,78.58,21.42
101462,J. F. Drake State Community and Technical College,3421 Meridian St N,Huntsville,AL,35811,3,1,City: Midsize,4,Madison County,"Degree-granting, Associates and certificates",-86.572885,34.771858,0,0,0,3870,840,7740,840,2,1088,529,559,15,752,0,0,3041750,461,2416322,7,12313,15,43998,0,0,514641,4710,8580,J. F. Drake State Community and Technical College,34,57.80,-23.80
101471,J F Ingram State Technical College,5375 Ingram Rd,Deatsville,AL,36022,3,2,Suburb: Large,4,Elmore County,"Degree-granting, Associates and certificates",-86.392369,32.582312,0,0,0,4644,684,4644,684,2,833,631,202,11,449,0,0,1489526,99,230902,202,375720,0,0,0,0,467336,5328,5328,J F Ingram State Technical College,72,65.06,6.94
101480,Jacksonville State University,700 Pelham Road North,Jacksonville,AL,36265,9,2,City: Small,2,Calhoun County,"Degree-granting, primarily baccalaureate or above",-85.765321,33.822938,3600,3300,35,9720,984,19440,984,2,8735,3704,5031,18,7491,4815,27731998,39060045,2908,13501988,234,445532,643,4509485,661,5298716,6758258,10704,20424,Jacksonville State University,75,71.47,3.53
101499,Jefferson Davis Community College,220 Alco Dr,Brewton,AL,36426,3,2,Town: Distant,-2,Escambia County,-2,-87.08534,31.101254,0,0,20,9450,551,13356,576,2,671.5,220,403.5,14,584.5,226,1475790,2060116.5,281.5,1167639,12,27016,19,27623,54,342649,1688138,10001,13932,Jefferson Davis Community College,72,70.66,1.34
101505,Jefferson State Community College,2601 Carson Rd,Birmingham,AL,35215-3098,3,2,City: Midsize,4,Jefferson County,"Degree-granting, Associates and certificates",-86.707233,33.652535,0,0,0,3870,930,7740,930,2,13608,5371,8237,20,8840,1614,6850570,15796309,2583,11026700,49,115708,170,667834,255,1007762,3197505,4800,8670,Jefferson State Community College,57,59.71,-2.71
101514,John C Calhoun State Community College,6250 U S Highway 31 N,Tanner,AL,35671,3,2,Rural: Fringe,4,Limestone County,"Degree-granting, Associates and certificates",-86.949674,34.645844,0,0,0,3870,950,7740,950,2,15261,7224,8037,23,9861,2111,10016254,21214211,3185,16021521,19,84690,219,587861,287,1325697,3153687,4820,8690,John C Calhoun State Community College,63,60.38,2.62
101541,Judson College,302 Bibb St,Marion,AL,36756,5,2,Rural: Remote,2,Perry County,"Degree-granting, primarily baccalaureate or above",-87.315206,32.629253,5960,4630,30,17240,1270,17240,1270,2,397,8,389,5,315,214,1536068,3660726,167,667612,58,46010,64,763477,48,315957,1688138,18510,18510,Judson College,62,69.34,-7.34
101569,Lawson State Community College,3060 Wilson Rd SW,Birmingham,AL,35221-1717,3,1,City: Midsize,4,Jefferson County,"Degree-granting, Associates and certificates",-86.888844,33.450814,3000,1760,0,3870,870,7740,870,2,4736,1910,2826,16,3248,0,0,13343071,2210,9390925,48,121270,291,1100678,0,0,4116657,4740,8610,Lawson State Community College,51,58.58,-7.58
101587,University of West Alabama,Station One,Livingston,AL,35470,9,2,Rural: Remote,2,Sumter County,"Degree-granting, primarily baccalaureate or above",-88.186329,32.588132,4610,2696,30,8450,1590,16900,1590,2,2516,1083,1433,14,2111,1463,13478713,9680511,1159,5404477,8,6000,304,1620950,443,3135133,2865963,10040,18490,University of West Alabama,62,65.86,-3.86
101602,Lurleen B Wallace Community College,1000 Dannelly Blvd.,Andalusia,AL,36420-1418,3,2,Rural: Fringe,4,Covington County,"Degree-granting, Associates and certificates",-86.452262,31.322947,0,0,0,3870,870,7740,870,2,2392,988,1404,17,1837,0,0,6716880,928,4275984,28,59697,158,583762,15,95473,2059592,4740,8610,Lurleen B Wallace Community College,57,58.63,-1.63
101648,Marion Military Institute,1101 Washington St,Marion,AL,36756-3207,3,2,Rural: Remote,4,Perry County,"Degree-granting, Associates and certificates",-87.322041,32.623734,0,0,30,6000,3418,12000,3418,2,459,352,107,14,446,216,1186991,4346945,187,871234,27,90896,261,1823168,124,658209,810393,9418,15418,Marion Military Institute,45,64.07,-19.07
101675,Miles College,5500 Myron Massey Blvd,Fairfield,AL,35064-2621,5,1,Suburb: Large,2,Jefferson County,"Degree-granting, primarily baccalaureate or above",-86.908751,33.482442,4182,3072,0,10632,1500,10632,1500,2,2089,1018,1071,16,1650,1527,10980681,11353530,1425,7552503,115,96605,111,649671,286,1906092,1688138,12132,12132,Miles College,54,61.71,-7.71
101693,University of Mobile,5735 College Parkway Drive,Mobile,AL,36613-2842,9,2,Rural: Fringe,2,Mobile County,"Degree-granting, primarily baccalaureate or above",-88.128934,30.793247,5400,4200,25,21620,1610,21620,1610,2,1652,575,1077,13,1443,934,8496853,15746063,622,2676742,134,115585,216,2906164,136,920847,1688138,23230,23230,University of Mobile,76,67.03,8.97
101709,University of Montevallo,Station 6001,Montevallo,AL,35115-6000,8,2,Suburb: Large,2,Shelby County,"Degree-granting, primarily baccalaureate or above",-86.865099,33.10625,6500,2830,35,12090,670,25110,670,2,2529,827,1702,13,2346,1339,9267212,20337009,935,4554579,5,6000,414,4262322,280,1768878,2662865,12760,25780,University of Montevallo,76,71.37,4.63
101736,Northwest-Shoals Community College,800 George Wallace Blvd,Muscle Shoals,AL,35661,3,2,City: Small,4,Colbert County,"Degree-granting, Associates and certificates",-87.678089,34.739788,0,0,0,3870,841,7740,841,2,4741,1932,2809,19,3440,678,3532158,9178423,1426,7364486,41,16161,309,626937,124,565218,2664312,4711,8581,Northwest-Shoals Community College,59,58.96,0.04
101879,University of North Alabama,One Harrison Plaza,Florence,AL,35632-0001,8,2,City: Small,2,Lauderdale County,"Degree-granting, primarily baccalaureate or above",-87.681361,34.806738,3700,4000,35,8310,1832,16620,1832,2,7077,2941,4136,19,6064,3496,23136830,26417588,2415,10731045,17,5775,673,3534836,760,6422719,5887864,10142,18452,University of North Alabama,75,70.83,4.17
101897,Northeast Alabama Community College,138  Highway 35,Rainsville,AL,35986,3,2,Rural: Distant,4,Jackson County,"Degree-granting, Associates and certificates",-85.911664,34.545471,0,0,0,3870,870,7740,870,2,3767,1478,2289,18,2736,205,464018,8410923,1281,5695293,12,6983,154,578314,60,229485,2410947,4740,8610,Northeast Alabama Community College,64,58.81,5.19
101912,Oakwood University,7000 Adventist Blvd NW,Huntsville,AL,35896,7,1,City: Midsize,2,Madison County,"Degree-granting, primarily baccalaureate or above",-86.652705,34.756344,4692,4958,25,18786,1006,18786,1006,2,1778,758,1020,11,1644,1145,7573819,11589291,826,3655733,71,43880,339,2793992,240,1581804,1688138,19792,19792,Oakwood University,71,64.11,6.89
101949,Alabama Southern Community College,2800 South Alabama Avenue,Monroeville,AL,36460,3,2,Rural: Fringe,-2,Monroe County,-2,-87.326352,31.488925,0,0,20,9450,551,13356,576,2,671.5,220,403.5,14,584.5,226,1475790,2060116.5,281.5,1167639,12,27016,19,27623,54,342649,1688138,10001,13932,Alabama Southern Community College,72,70.66,1.34
101994,Reid State Technical College,100 and Hwy 83,Evergreen,AL,36401,3,2,Rural: Fringe,4,Conecuh County,"Degree-granting, Associates and certificates",-86.964797,31.460265,0,0,0,3870,930,7740,930,2,565,213,352,12,392,0,0,1373567,204,688609,1,3816,39,111843,0,0,282788,4800,8670,Reid State Technical College,49,60.46,-11.46
102030,Bishop State Community College,351 North Broad Street,Mobile,AL,36603-5898,4,1,City: Midsize,4,Mobile County,"Degree-granting, Associates and certificates",-88.056982,30.693972,0,0,0,3870,870,7740,870,2,4748,1879,2869,19,3233,0,0,10641798,1757,7623740,51,93683,168,683089,0,0,3052149,4740,8610,Bishop State Community College,46,58.25,-12.25
102049,Samford University,800 Lakeshore Drive,Birmingham,AL,35229-2240,9,2,Suburb: Large,2,Jefferson County,"Degree-granting, primarily baccalaureate or above",-86.791799,33.464128,5686,4864,40,30800,850,30800,850,2,3511,1197,2314,12,3373,1121,7621570,49060834,414,1906491,175,174245,835,12445995,324,2737020,1688138,31650,31650,Samford University,90,78.23,11.77
102058,Selma University,"1501 Lapsley St, Dinkins Hall",Selma,AL,36701,7,1,Town: Distant,2,Dallas County,"Degree-granting, primarily baccalaureate or above",-87.032392,32.420387,3200,3200,30,7205,205,7205,205,2,348,153,195,13,311,290,2185617,1213217,300,1195217,0,0,43,18000,43,79500,1688138,7410,7410,Selma University,33,62.10,-29.10
102067,Shelton State Community College,9500 Old Greensboro Rd,Tuscaloosa,AL,35405-8522,3,1,City: Midsize,4,Tuscaloosa County,"Degree-granting, Associates and certificates",-87.56148,33.120531,0,0,0,3870,597,8310,597,2,7253,3086,4167,19,4607,0,0,13128222,2146,10083829,46,57950,142,582872,0,0,2779024,4467,8907,Shelton State Community College,58,59.38,-1.38
102076,Snead State Community College,102 Elder Street,Boaz,AL,35957-0734,3,2,Town: Distant,4,Marshall County,"Degree-granting, Associates and certificates",-86.169897,34.201495,2250,1361,0,3870,930,7740,930,2,3611,1342,2269,21,2220,483,2405689,9291861,1079,5242466,8,49676,286,1357687,92,410994,2942939,4800,8670,Snead State Community College,62,59.12,2.88
102094,University of South Alabama,307 N University Blvd,Mobile,AL,36688-0002,9,2,City: Midsize,2,Mobile County,"Degree-granting, primarily baccalaureate or above",-88.178711,30.696033,4000,3620,35,7896,500,15792,500,2,12062,5202,6860,18,10988,6085,64174631,46054893,4310,20274128,59,45719,1263,6724148,1147,12597460,9980718,8396,16292,University of South Alabama,74,73.46,0.54
102234,Spring Hill College,4000 Dauphin St,Mobile,AL,36608-1791,8,2,City: Midsize,2,Mobile County,"Degree-granting, primarily baccalaureate or above",-88.138199,30.694751,7108,6354,25,37078,2386,37078,2386,2,1495,558,937,13,1377,1091,10895862,40702776,471,2300681,179,193100,395,11617325,360,2920108,1688138,39464,39464,Spring Hill College,72,76.65,-4.65
102270,Stillman College,3601 Stillman Boulevard,Tuscaloosa,AL,35401,5,1,City: Midsize,2,Tuscaloosa County,"Degree-granting, primarily baccalaureate or above",-87.585278,33.200006,3404,3990,20,9548,1544,9548,1544,2,854,407,447,15,677,625,5290358,3127891,563,2676847,6,25413,36,279607,97,950074,1688138,11092,11092,Stillman College,68,64.18,3.82
102298,Talladega College,627 West Battle Street,Talladega,AL,35160,7,1,Town: Distant,2,Talladega County,"Degree-granting, primarily baccalaureate or above",-86.112704,33.433472,0,0,25,12130,1441,12130,1441,2,1018,540,478,22,782,646,6042000,8456938,700,4144000,0,0,63,491148,157,1576159,1688138,13571,13571,Talladega College,70,57.53,12.47
102313,H Councill Trenholm State Community College,1225 Air Base Blvd,Montgomery,AL,36108-3199,3,1,City: Midsize,4,Montgomery County,"Degree-granting, Associates and certificates",-86.343057,32.350109,0,0,0,3870,780,7740,780,2,2572,1227,1345,14,1845,0,0,5531054,945,4116276,13,11376,54,147197,0,0,1285090,4650,8520,H Councill Trenholm State Community College,53,57.47,-4.47
102368,Troy University,University Avenue,Troy,AL,36082-0001,9,2,Town: Remote,2,Pike County,"Degree-granting, primarily baccalaureate or above",-85.957094,31.800672,3300,3504,30,7800,1108,15600,1108,2,16868,6761,10107,16,14000,8754,49606588,59214315,5621,22708573,22,56180,976,7866166,1536,6571774,9526270,8908,16708,Troy University,73,75.25,-2.25
102377,Tuskegee University,"Kresge Center, 3rd Floor",Tuskegee,AL,36088-1920,9,1,Town: Distant,2,Macon County,"Degree-granting, primarily baccalaureate or above",-85.708492,32.4309,4450,5200,25,19210,2960,19210,2960,2,2834,1023,1811,14,2833,1344,15302754,9244361,1489,7244361,41,265904,195,1290999,433,1491216,1688138,22170,22170,Tuskegee University,70,64.32,5.68
102395,United States Sports Academy,One Academy Drive,Daphne,AL,36526-7055,9,2,City: Small,2,Baldwin County,"Degree-granting, primarily baccalaureate or above",-87.91163,30.639329,0,0,50,16200,0,16200,0,2,213,155,58,8,103,55,289932,188690,55,135366,12,27016,19,27623,54,342649,1688138,16200,16200,United States Sports Academy,72,66.68,5.32
102429,Bevill State Community College,1411 Indiana Avenue,Jasper,AL,35501,3,2,Town: Distant,4,Walker County,"Degree-granting, Associates and certificates",-87.266406,33.836929,1450,0,0,4128,958,8256,958,2,5537,2212,3325,16,3872,0,0,12418928,1693,7256056,42,95997,238,901095,18,105269,2938415,5086,9214,Bevill State Community College,61,59.41,1.59
102553,University of Alaska Anchorage,3211 Providence Drive,Anchorage,AK,99508,9,2,City: Large,2,Anchorage Municipality,"Degree-granting, primarily baccalaureate or above",-149.82619,61.190163,7212,4666,50,7155,1425,23190,1572,2,22973,9519,13454,14,14955,3355,22438967,36085255,3372,12616492,692,2783986,457,1668040,359,1986983,5844786,8580,24762,University of Alaska Anchorage,67,76.88,-9.88
102580,Alaska Bible College,248 E Elmwood Ave,Palmer,AK,99645,5,2,Town: Distant,2,Matanuska-Susitna Borough,"Degree-granting, primarily baccalaureate or above",-149.111972,61.598553,0,0,35,9000,600,9000,600,2,44,29,15,6,31,12,27533,192459,19,87330,3,5661,3,6350,2,6501,1688138,9600,9600,Alaska Bible College,100,79.11,20.89
102614,University of Alaska Fairbanks,1731 South Chandalar Drive,Fairbanks,AK,99775,9,2,Suburb: Small,2,Fairbanks North Star Borough,"Degree-granting, primarily baccalaureate or above",-147.823146,64.85756,4244,4730,50,6646,1598,21953,2222,2,11417,4649,6768,11,6639,1512,10460767,19312466,1462,5369151,355,1620822,249,1110188,200,1370136,3125427,8244,24175,University of Alaska Fairbanks,73,74.27,-1.27
102632,University of Alaska Southeast,11066 Auke Lake Way,Juneau,AK,99801-8697,7,2,Town: Remote,2,Juneau City and Borough,"Degree-granting, primarily baccalaureate or above",-134.638255,58.384846,5200,4000,50,6552,1568,21644,2184,2,3622,1293,2329,10,2060,396,2589049,3796627,364,1321928,84,365273,70,266069,45,247239,808339,8120,23828,University of Alaska Southeast,74,73.58,0.42
102669,Alaska Pacific University,4101 University Dr,Anchorage,AK,99508,9,2,City: Large,2,Anchorage Municipality,"Degree-granting, primarily baccalaureate or above",-149.804168,61.190968,0,0,25,20350,410,20350,410,2,340,116,224,7,295,144,1034275,2685625,103,430359,12,41520,30,355956,20,114712,1688138,20760,20760,Alaska Pacific University,81,71.49,9.51
102711,AVTEC-Alaska's Institute of Technology,809 Second Avenue,Seward,AK,99664-0889,2,2,Rural: Remote,6,Kenai Peninsula Borough,"Nondegree-granting, sub-baccalaureate",-149.444487,60.110626,0,0,35,9450,551,13356,576,2,1895,1525,370,15,1895,35,190539,616099,82,366369,62,125647,13,12140,31,213520,42965,10001,13932,AVTEC-Alaska's Institute of Technology,94,75.09,18.91
102845,Charter College,"17200 S.E. Mill Plain Boulevard, Suite 100",Vancouver,WA,98683-7575,7,2,City: Midsize,3,Clark County,"Degree-granting, not primarily baccalaureate or above",-122.494766,45.617798,0,0,0,22655,0,22655,0,2,4415,1052,3363,25,2660,1921,15293793,11379816,1648,7090234,66,229487,784,1266818,894,9041232,1688138,22655,22655,Charter College,50,66.82,-16.82
103501,Alaska Career College,1415 E Tudor Road,Anchorage,AK,99507-1033,3,2,City: Large,4,Anchorage Municipality,"Degree-granting, Associates and certificates",-149.856954,61.181443,0,0,25,9450,551,13356,576,2,586,90,496,15,586,481,3627702,2915136,434,2068878,22,131669,9,3750,259,1621271,1688138,10001,13932,Alaska Career College,72,68.78,3.22
103529,University of Alaska System of Higher Education,"910 Yukon Drive, Suite 202 Butrovich Building",Fairbanks,AK,99775-5000,9,2,Suburb: Small,-2,Fairbanks North Star Borough,-2,-147.848969,64.857516,0,0,0,9450,551,13356,576,2,671.5,220,403.5,14,584.5,226,1475790,2060116.5,281.5,1167639,12,27016,19,27623,54,342649,1688138,10001,13932,University of Alaska System of Higher Education,72,73.04,-1.04
103741,Empire Beauty School-Tucson,3030 E Speedway Blvd,Tucson,AZ,85716,2,2,City: Large,6,Pima County,"Nondegree-granting, sub-baccalaureate",-110.927187,32.235657,0,0,125,9450,551,13356,576,2,178,17,161,18,178,93,793624,445505,102,431830,1,800,13,3425,52,439015,1688138,10001,13932,Empire Beauty School-Tucson,69,65.52,3.48
103778,Thunderbird School of Global Management,1 Global Place,Glendale,AZ,85306-6000,7,2,Suburb: Large,-2,Maricopa County,-2,-112.180861,33.620887,0,0,20,9450,551,13356,576,2,671.5,220,403.5,14,584.5,226,1475790,2060116.5,281.5,1167639,12,27016,19,27623,54,342649,1688138,10001,13932,Thunderbird School of Global Management,72,71.39,0.61
103811,American Institute of Trucking,2350 S. 48th Avenue,Phoenix,AZ,85043-4380,1,2,City: Large,6,Maricopa County,"Nondegree-granting, sub-baccalaureate",-112.162577,33.426692,0,0,100,9450,551,13356,576,2,1035,897,138,14,584.5,226,1475790,2060116.5,281.5,1167639,12,27016,19,27623,54,342649,1688138,10001,13932,American Institute of Trucking,72,72.37,-0.37
103893,Carrington College-Phoenix North,8503 N. 27th Ave.,Phoenix,AZ,85051-4063,3,2,City: Large,4,Maricopa County,"Degree-granting, Associates and certificates",-112.116105,33.561689,0,0,0,9450,551,13356,576,2,963,111,852,39,963,190,1447755,935665,198,715105,0,0,36,178747,137,1059208,1688138,10001,13932,Carrington College-Phoenix North,68,67.79,0.21
103909,Carrington College-Mesa,"1001 W. Southern Ave., Ste. 130",Mesa,AZ,85210,3,2,City: Large,4,Maricopa County,"Degree-granting, Associates and certificates",-111.853218,33.39248,0,0,0,9450,551,13356,576,2,883,135,748,26,883,249,2606506,1285405,221,997880,0,0,36,173767,123,967054,1688138,10001,13932,Carrington College-Mesa,61,68.12,-7.12
103927,Carrington College-Tucson,"201 N. Bonita Ave., Ste. 101",Tucson,AZ,85745,3,2,City: Large,4,Pima County,"Degree-granting, Associates and certificates",-110.983056,32.224391,0,0,0,9450,551,13356,576,2,497,99,398,34,497,88,705934,494668,94,323271,0,0,11,76223,60,481863,1688138,10001,13932,Carrington College-Tucson,58,69.36,-11.36
103945,CollegeAmerica-Flagstaff,399 Malpais,Flagstaff,AZ,86001,5,2,City: Small,3,Coconino County,"Degree-granting, not primarily baccalaureate or above",-111.657673,35.194495,0,0,0,18021,0,18021,0,2,117,16,101,11,78,64,619558,420717,64,315894,0,0,9,11972,17,215146,1688138,18021,18021,CollegeAmerica-Flagstaff,72,66.64,5.36
103954,Arizona Academy of Beauty-East,5631 E Speedway Blvd,Tucson,AZ,85712,2,2,City: Large,6,Pima County,"Nondegree-granting, sub-baccalaureate",-110.872305,32.237253,0,0,100,9450,551,13356,576,2,97,9,88,20,97,56,283199,313963,76,289926,0,0,0,0,7,24737,1688138,10001,13932,Arizona Academy of Beauty-East,0,68.21,-68.21
103963,Platt College-Arizona Automotive Institute Arizona,6829 N 46th Ave,Glendale,AZ,85301-3579,2,2,Suburb: Large,6,Maricopa County,"Nondegree-granting, sub-baccalaureate",-112.157344,33.537249,0,0,100,9450,551,13356,576,2,1192,1103,89,22,1192,709,8464631,4942596,763,4026314,54,288731,0,0,387,3388986,1688138,10001,13932,Platt College-Arizona Automotive Institute Arizona,55,71.79,-16.79
104090,Brookline College-Phoenix,"2445 W. Dunlap Ave., Ste. 100",Phoenix,AZ,85021,7,2,City: Large,3,Maricopa County,"Degree-granting, not primarily baccalaureate or above",-112.112473,33.566102,0,0,0,9450,551,13356,576,2,1325,215,1110,16,1687,1175,10108700,6744518,1168,6069282,15,129234,102,270479,830,7998964,1688138,10001,13932,Brookline College-Phoenix,24,65.76,-41.76
104151,Arizona State University-Tempe,University Drive and Mill Avenue,Tempe,AZ,85287,9,2,City: Midsize,2,Maricopa County,"Degree-granting, primarily baccalaureate or above",-111.934383,33.417721,7600,5048,50,10104,718,27618,718,2,45657,25852,19805,19,42427,15493,99127435,366167416,12840,56934776,46,77944,7180,75306360,2685,17817142,57814651,10822,28336,Arizona State University-Tempe,88,84.80,3.20
104160,Arizona Western College,2020 S. Avenue 8E,Yuma,AZ,85365-8834,3,2,City: Small,4,Yuma County,"Degree-granting, Associates and certificates",-114.495968,32.689306,2240,4872,0,2016,0,7608,0,2,11492,5086,6406,18,7557,142,617551,17234407,3413,14518023,8,5882,96,592348,20,79000,2226182,2016,7608,Arizona Western College,66,60.91,5.09
104179,University of Arizona,1401 E University,Tucson,AZ,85721-0066,9,2,City: Large,2,Pima County,"Degree-granting, primarily baccalaureate or above",-110.950815,32.232672,7550,5000,50,10467,1384,31688,1384,2,37278,17977,19301,15,34101,12786,83854044,273968390,9876,46137474,531,3366679,4968,50214927,2141,14439619,39705658,11851,33072,University of Arizona,81,85.28,-4.28
104188,Southwest University of Visual Arts-Tucson,2525 N Country Club Rd,Tucson,AZ,85716,7,2,City: Large,2,Pima County,"Degree-granting, primarily baccalaureate or above",-110.927265,32.252879,0,0,25,22944,100,22944,100,2,127,65,62,10,122,84,1007675,462090,89,385661,1,4700,12,36576,11,51942,1688138,23044,23044,Southwest University of Visual Arts-Tucson,81,64.89,16.11
104346,Central Arizona College,8470 N Overfield Rd,Coolidge,AZ,85128-9030,3,2,Rural: Fringe,4,Pinal County,"Degree-granting, Associates and certificates",-111.652501,32.957092,0,0,0,2580,0,11100,0,2,8086,3423,4663,17,5405,471,2834550,11324603,2205,10259157,0,0,106,376079,53,276358,1676735,2580,11100,Central Arizona College,54,55.87,-1.87
104391,Charles of Italy Beauty College,"1987 McCulloch Blvd, Suite 205",Lake Havasu City,AZ,86403,2,2,City: Small,6,Mohave County,"Nondegree-granting, sub-baccalaureate",-114.332686,34.477485,0,0,100,9450,551,13356,576,2,75,8,67,18,75,41,210770,200684,39,173950,1,6734,0,0,41,210770,1688138,10001,13932,Charles of Italy Beauty College,89,74.06,14.94
104425,Cochise County Community College District,901 N Colombo Ave,Sierra Vista,AZ,85635-2317,3,2,City: Small,4,Cochise County,"Degree-granting, Associates and certificates",-110.246946,31.564597,0,0,0,2040,0,6240,0,2,11087,7080,4007,16,3907,267,1511991,8327079,1434,5395485,36,9650,84,290563,32,158898,1359028,2040,6240,Cochise County Community College District,63,58.17,4.83
104434,Empire Beauty School-Flagstaff,1790 E Rte 66,Flagstaff,AZ,86004,2,2,City: Small,6,Coconino County,"Nondegree-granting, sub-baccalaureate",-111.625936,35.197151,0,0,125,9450,551,13356,576,2,62,3,59,16,62,34,295000,143701,34,135901,0,0,11,3900,25,213500,1688138,10001,13932,Empire Beauty School-Flagstaff,81,70.43,10.57
104443,Empire Beauty School-Chandler,2978 N Alma School Rd #1-3,Chandler,AZ,85224,2,2,Suburb: Large,6,Maricopa County,"Nondegree-granting, sub-baccalaureate",-111.860423,33.347586,0,0,125,9450,551,13356,576,2,114,5,109,13,114,62,549090,307236,72,298836,0,0,8,825,21,190788,1688138,10001,13932,Empire Beauty School-Chandler,56,71.77,-15.77
104504,Cortiva Institute-Tucson,"6390 E. Broadway, Suite 100",Tucson,AZ,85710,2,2,City: Large,6,Pima County,"Nondegree-granting, sub-baccalaureate",-110.856785,32.21901,0,0,0,9450,551,13356,576,2,161,42,119,30,161,138,484477,236531,133,232831,0,0,0,0,18,142574,1688138,10001,13932,Cortiva Institute-Tucson,76,70.61,5.39
104568,Avalon School of Cosmetology-Mesa,2111 S Alma School Rd Ste 21,Mesa,AZ,85210,2,2,City: Large,6,Maricopa County,"Nondegree-granting, sub-baccalaureate",-111.858305,33.376583,0,0,50,9450,551,13356,576,2,515,28,487,17,515,343,1718305,1256456,315,1228456,0,0,8,9500,115,590056,1688138,10001,13932,Avalon School of Cosmetology-Mesa,89,71.27,17.73
104577,Eastern Arizona College,615 N. Stadium Ave.,Thatcher,AZ,85552-0769,3,2,Town: Remote,4,Graham County,"Degree-granting, Associates and certificates",-109.76234,32.843664,0,0,0,2700,0,11400,0,2,8682,4158,4524,17,6365,0,0,9168186,1203,4813110,7,3700,88,742020,3,9125,769530,2700,11400,Eastern Arizona College,64,62.71,1.29
104586,Embry-Riddle Aeronautical University-Prescott,3700 Willow Creek Road,Prescott,AZ,86301-3720,7,2,Rural: Fringe,2,Yavapai County,"Degree-granting, primarily baccalaureate or above",-112.449741,34.616766,6698,4696,50,34392,1262,34392,1262,2,2770,2103,667,17,2606,1234,8924081,38036651,656,3280194,0,0,639,10697025,357,4700945,1688138,35654,35654,Embry-Riddle Aeronautical University-Prescott,81,80.07,0.93
104665,School of Architecture at Taliesin,12621 N. Frank Lloyd Wright Blvd,Scottsdale,AZ,85259,7,2,Rural: Fringe,1,Maricopa County,"Degree-granting, graduate with no undergraduate degrees",-111.845411,33.607097,0,0,0,0,0,0,0,2,671.5,220,403.5,14,584.5,226,1475790,2060116.5,281.5,1167639,12,27016,19,27623,54,342649,1688138,0,0,School of Architecture at Taliesin,72,70.37,1.63
104708,Glendale Community College,6000 W Olive Ave,Glendale,AZ,85302,3,2,Suburb: Large,4,Maricopa County,"Degree-granting, Associates and certificates",-112.190735,33.570226,0,0,0,2040,30,7824,30,2,27350,12603,14747,22,19033,2040,7560823,27999908,6265,23357320,5,2500,560,982270,163,489609,5275256,2070,7854,Glendale Community College,64,62.86,1.14
104717,Grand Canyon University,3300 W Camelback Rd,Phoenix,AZ,85017,9,2,City: Large,2,Maricopa County,"Degree-granting, primarily baccalaureate or above",-112.129929,33.513231,5000,4000,0,16399,677,16399,677,2,76300,21588,54712,20,49556,29446,247222408,247936099,22887,99861260,30,23550,2278,17579096,1669,11908858,1688138,17076,17076,Grand Canyon University,64,74.32,-10.32
105136,Maricopa Community College System Office,2411 W 14th St,Tempe,AZ,85281-6942,4,2,City: Midsize,-2,Maricopa County,-2,-111.975786,33.412915,0,0,0,9450,551,13356,576,2,671.5,220,403.5,14,584.5,226,1475790,2060116.5,281.5,1167639,12,27016,19,27623,54,342649,1688138,10001,13932,Maricopa Community College System Office,72,71.39,0.61
105145,GateWay Community College,108 N. 40th Street,Phoenix,AZ,85034,4,2,City: Large,4,Maricopa County,"Degree-granting, Associates and certificates",-111.997077,33.449686,0,0,0,2040,30,7824,30,2,7660,3291,4369,15,5087,781,3233503,7082345,1638,5746829,14,7000,93,134355,29,101141,1049495,2070,7854,GateWay Community College,57,59.81,-2.81
105154,Mesa Community College,1833 W Southern Ave,Mesa,AZ,85202,3,2,City: Large,4,Maricopa County,"Degree-granting, Associates and certificates",-111.871255,33.390323,0,0,0,2040,30,7824,30,2,30010,14229,15781,22,20424,2656,9994981,25736099,5698,20520765,50,24832,422,727034,188,638470,3656844,2070,7854,Mesa Community College,66,62.43,3.57
105206,Mohave Community College,1971 Jagerson Ave,Kingman,AZ,86409-1238,3,2,Rural: Fringe,4,Mohave County,"Degree-granting, Associates and certificates",-114.029838,35.270996,0,0,0,2430,210,8505,210,2,5809,2043,3766,13,4312,493,2874591,6823004,1666,5890720,1,500,8,7504,22,137126,432649,2640,8715,Mohave Community College,52,54.67,-2.67
105215,Universal Technical Institute of Arizona Inc-Motorcycle Mechanics Institute Division,2844 W Deer Valley Rd,Phoenix,AZ,85027,4,2,City: Large,6,Maricopa County,"Nondegree-granting, sub-baccalaureate",-112.121336,33.684428,0,0,50,9450,551,13356,576,2,1427,1349,78,32,1427,730,4943223,4386142,691,2847127,3,3099,165,247161,246,1721886,1688138,10001,13932,Universal Technical Institute of Arizona Inc-Motorcycle Mechanics Institute Division,81,71.46,9.54
105297,Dine College,"Route 12, One Circle Drive",Tsaile,AZ,86556,5,2,Rural: Remote,3,Apache County,"Degree-granting, not primarily baccalaureate or above",-109.21684,36.293328,1280,2960,20,1320,90,1320,90,2,2034,673,1361,14,1465,0,0,3564581,947,2273113,7,9590,2,1400,0,0,238195,1410,1410,Dine College,72,59.71,12.29
105330,Northern Arizona University,"1900 S Knoles Dr, Babbitt Administrative Center, Room 200",Flagstaff,AZ,86011-4092,9,2,City: Small,2,Coconino County,"Degree-granting, primarily baccalaureate or above",-111.653724,35.188449,5576,4706,25,9738,1058,16431,1128,2,29918,11979,17939,19,27084,12241,79772539,175541410,9423,39882563,382,925730,4603,39359288,2643,15388318,39794356,10796,17559,Northern Arizona University,73,82.72,-9.72
105349,Northland Pioneer College,2251 E. Navajo Blvd.,Holbrook,AZ,86025-0610,3,2,Rural: Fringe,4,Navajo County,"Degree-granting, Associates and certificates",-110.142199,34.93031,0,0,0,1776,90,8520,90,2,5970,2273,3697,15,3021,0,0,3890440,528,1892544,4,3400,20,42913,0,0,220802,1866,8610,Northland Pioneer College,44,55.33,-11.33
105367,Ottawa University-Phoenix,9414 North 25th Avenue,Phoenix,AZ,85021,8,2,City: Large,2,Maricopa County,"Degree-granting, primarily baccalaureate or above",-112.113001,33.572173,0,0,50,11976,245,11976,245,2,586,165,421,8,340,232,2707843,1108281,170,803190,12,27016,19,27623,54,342649,1688138,12221,12221,Ottawa University-Phoenix,72,68.93,3.07
105428,Phoenix College,1202 W Thomas Rd,Phoenix,AZ,85013,3,2,City: Large,4,Maricopa County,"Degree-granting, Associates and certificates",-112.088293,33.481361,0,0,0,2040,30,7824,30,2,17335,6374,10961,19,11428,1521,5821824,18880352,4352,16000410,9,4500,112,139324,45,138690,2206087,2070,7854,Phoenix College,59,59.67,-0.67
105482,Cortiva Institute-Scottsdale,8010 East McDowell Road #214,Scottsdale,AZ,85257,1,2,City: Midsize,6,Maricopa County,"Nondegree-granting, sub-baccalaureate",-111.90807,33.466153,0,0,25,9450,551,13356,576,2,137,41,96,15,137,121,433284,160300,93,153734,0,0,2,2000,29,178795,1688138,10001,13932,Cortiva Institute-Scottsdale,72,72.63,-0.63
105525,Pima Community College,4905C East  Broadway Blvd.,Tucson,AZ,85709-1275,3,2,City: Large,4,Pima County,"Degree-granting, Associates and certificates",-110.886659,32.222125,0,0,0,1980,162,7296,162,2,33740,15521,18219,19,24347,2318,9985952,35242265,7711,32504661,69,84150,216,506983,203,869837,6636426,2142,7458,Pima Community College,59,63.12,-4.12
105534,Pima Medical Institute-Tucson,"3350 East Grant Road, Suite 100",Tucson,AZ,85716,5,2,City: Large,3,Pima County,"Degree-granting, not primarily baccalaureate or above",-110.921301,32.2502,0,0,0,9450,551,13356,576,2,3535,740,2795,25,3535,2518,18889950,8234029,2008,7461829,238,294013,209,129476,1307,8890441,1688138,10001,13932,Pima Medical Institute-Tucson,72,65.05,6.95
105543,Pima Medical Institute-Albuquerque,4400 Cutler Avenue NE,Albuquerque,NM,87110,3,2,City: Large,4,Bernalillo County,"Degree-granting, Associates and certificates",-106.59488,35.104855,0,0,0,9450,551,13356,576,2,1309,271,1038,25,1309,933,5923824,4098972,857,3480238,82,465352,10,55124,889,5932823,1688138,10001,13932,Pima Medical Institute-Albuquerque,71,65.91,5.09
105589,Prescott College,220 Grove Ave,Prescott,AZ,86301,9,2,City: Small,2,Yavapai County,"Degree-granting, primarily baccalaureate or above",-112.477185,34.5452,6900,2421,0,29880,1605,29880,1605,2,542,198,344,9,352,230,1887151,4550877,168,784771,1,1500,64,1045484,45,314340,1688138,31485,31485,Prescott College,72,70.30,1.70
105659,Refrigeration School Inc,4210 E Washington Street,Phoenix,AZ,85034-1816,3,2,City: Large,4,Maricopa County,"Degree-granting, Associates and certificates",-111.989357,33.448692,0,0,0,9450,551,13356,576,2,1308,1270,38,34,1308,811,4819483,4431543,812,3236971,46,516185,236,349536,525,3608898,1688138,10001,13932,Refrigeration School Inc,75,65.69,9.31
105668,Rio Salado College,2323 W 14th St,Tempe,AZ,85281,3,2,City: Midsize,4,Maricopa County,"Degree-granting, Associates and certificates",-111.97417,33.413309,0,0,0,2040,30,7824,30,2,42716,17072,25644,31,17635,1828,6519776,8325783,2428,7202630,1,1000,11,8305,36,106747,239170,2070,7854,Rio Salado College,30,46.39,-16.39
105677,Roberto-Venn School of Luthiery,1012 NW Grand Ave,Phoenix,AZ,85007,1,2,City: Large,6,Maricopa County,"Nondegree-granting, sub-baccalaureate",-112.086161,33.45489,0,0,50,9450,551,13356,576,2,47,45,2,6,47,20,180985,68715,19,68715,0,0,0,0,13,129836,1688138,10001,13932,Roberto-Venn School of Luthiery,72,76.88,-4.88
105747,Scottsdale Community College,9000 E Chaparral Rd,Scottsdale,AZ,85256,3,2,Rural: Fringe,4,Maricopa County,"Degree-granting, Associates and certificates",-111.885186,33.51135,0,0,0,2040,30,7824,30,2,13652,6208,7444,19,9458,962,3687247,7758660,1641,5983460,7,6500,108,150415,77,267432,858517,2070,7854,Scottsdale Community College,64,60.02,3.98
105792,South Mountain Community College,7050 S 24th St,Phoenix,AZ,85042,3,2,City: Large,4,Maricopa County,"Degree-granting, Associates and certificates",-112.032635,33.382406,0,0,0,2040,30,7824,30,2,5909,2437,3472,19,4120,533,2133912,8104783,1740,6701033,3,1500,116,206596,56,186354,1822602,2070,7854,South Mountain Community College,60,55.79,4.21
105899,Arizona Christian University,2625 E Cactus Rd,Phoenix,AZ,85032-7097,5,2,City: Large,2,Maricopa County,"Degree-granting, primarily baccalaureate or above",-112.026211,33.595117,5400,5274,30,25476,1320,25476,1320,2,834,513,321,14,786,453,4311269,9874269,328,1286900,0,0,152,2072029,117,1232003,1688138,26796,26796,Arizona Christian University,59,66.08,-7.08
106041,Universal Technical Institute of Arizona Inc,10695 West Pierce Street,Avondale,AZ,85323,3,2, Suburb: Midsize,4,Maricopa County,"Degree-granting, Associates and certificates",-112.288123,33.453005,0,0,50,9450,551,13356,576,2,2461,2369,92,37,2461,1525,9866057,7629852,1338,5121519,12,102084,245,550376,658,5458706,1688138,10001,13932,Universal Technical Institute of Arizona Inc,79,71.74,7.26
106102,Western International University,1601 W Fountainhead Parkway,Tempe,AZ,85282,7,2,City: Midsize,2,Maricopa County,"Degree-granting, primarily baccalaureate or above",-111.964527,33.403294,0,0,0,6000,0,6000,0,2,673,240,433,14,584.5,226,1475790,2060116.5,281.5,1167639,12,27016,19,27623,54,342649,1688138,6000,6000,Western International University,72,68.52,3.48
106111,Empire Beauty School-NW Phoenix,2727 W. Glendale Ave. #200,Phoenix,AZ,85051,2,2,City: Large,6,Maricopa County,"Nondegree-granting, sub-baccalaureate",-112.118168,33.538093,0,0,125,9450,551,13356,576,2,177,7,170,16,177,95,815070,553320,129,541620,0,0,11,1350,46,394422,1688138,10001,13932,Empire Beauty School-NW Phoenix,55,66.71,-11.71
106148,Yavapai College,1100 E Sheldon St,Prescott,AZ,86301,3,2,City: Small,4,Yavapai County,"Degree-granting, Associates and certificates",-112.453395,34.547495,0,0,0,2360,0,8998,0,2,10116,4351,5765,18,7370,616,3836089,13689221,2112,7780902,15,11625,123,479553,73,426322,1665585,2360,8998,Yavapai College,58,60.53,-2.53
106245,University of Arkansas at Little Rock,2801 S University Ave,Little Rock,AR,72204,9,2,City: Midsize,2,Pulaski County,"Degree-granting, primarily baccalaureate or above",-92.339778,34.723254,5180,3750,40,6495,2897,18750,2897,2,10862,4230,6632,12,9345,3785,31730030,37229190,3364,15547508,413,445237,363,2663764,430,2914663,4838801,9392,21647,University of Arkansas at Little Rock,68,68.00,0.00
106263,University of Arkansas for Medical Sciences,4301 W Markham,Little Rock,AR,72205-7199,9,2,City: Midsize,2,Pulaski County,"Degree-granting, primarily baccalaureate or above",-92.320046,34.749048,7560,0,70,6540,1657,14316,1657,2,700,134,566,10,646,392,3433268,2152895,235,1007548,12,27016,19,27623,54,342649,1688138,8197,15973,University of Arkansas for Medical Sciences,72,72.82,-0.82
106306,Arkansas Baptist College,1600 Dr. Martin Luther King Jr. Drive,Little Rock,AR,72202-6068,5,1,City: Midsize,3,Pulaski County,"Degree-granting, not primarily baccalaureate or above",-92.290555,34.734751,4738,4738,25,8760,0,8760,0,2,858,628,230,23,593,448,3152756,3174254,478,2102278,11,11600,79,321805,113,697573,1688138,8760,8760,Arkansas Baptist College,50,61.94,-11.94
106315,Arkansas Beauty School-Little Rock,8521 Geyer Springs Road Unit 30,Little Rock,AR,72209,2,2,City: Midsize,6,Pulaski County,"Nondegree-granting, sub-baccalaureate",-92.343366,34.672171,0,0,50,9450,551,13356,576,2,220,8,212,20,220,137,989317,680115,159,636580,0,0,0,0,2,11833,1688138,10001,13932,Arkansas Beauty School-Little Rock,76,70.88,5.12
106324,Arkansas Beauty College,109 N Commerce St,Russellville,AR,72801,2,2,Town: Remote,6,Pope County,"Nondegree-granting, sub-baccalaureate",-93.135369,35.27902,0,0,0,9450,551,13356,576,2,40,2,38,4,40,26,117680,130742,32,119770,0,0,0,0,18,88599,1688138,10001,13932,Arkansas Beauty College,85,75.86,9.14
106342,Lyon College,2300 Highland Road,Batesville,AR,72501,5,2,Town: Remote,2,Independence County,"Degree-granting, primarily baccalaureate or above",-91.625354,35.777619,0,0,0,28200,590,28200,590,2,694,378,316,10,672,394,2565651,14037078,259,1130325,118,275500,190,3702530,123,927083,1688138,28790,28790,Lyon College,71,69.90,1.10
106351,Arkansas College of Barbering and Hair Design,200 E Washington Ave,North Little Rock,AR,72114,2,2,City: Small,6,Pulaski County,"Nondegree-granting, sub-baccalaureate",-92.266429,34.753843,0,0,0,9450,551,13356,576,2,213,145,68,20,213,132,1094984,764682,155,694722,0,0,0,0,2,15000,1688138,10001,13932,Arkansas College of Barbering and Hair Design,60,68.82,-8.82
106360,Arthur's Beauty College Inc-Fort Smith,2000 North B St,Fort Smith,AR,72901-3342,2,2,City: Small,6,Sebastian County,"Nondegree-granting, sub-baccalaureate",-94.410967,35.379955,0,0,0,9450,551,13356,576,2,60,1,59,13,60,37,186120,164378,43,164104,1,274,0,0,18,83226,1688138,10001,13932,Arthur's Beauty College Inc-Fort Smith,44,67.39,-23.39
106397,University of Arkansas,Administration Bldg 425,Fayetteville,AR,72701,9,2,City: Small,2,Washington County,"Degree-granting, primarily baccalaureate or above",-94.176981,36.070009,7090,3930,40,7384,1746,23422,1746,2,24897,11756,13141,18,23044,8617,56910805,97737081,4605,19474611,2089,4892785,2232,11607797,2099,16378032,16792831,9130,25168,University of Arkansas,84,80.45,3.55
106412,University of Arkansas at Pine Bluff,1200 N University Mail Slot 4789,Pine Bluff,AR,71601,9,1,City: Small,2,Jefferson County,"Degree-granting, primarily baccalaureate or above",-92.018683,34.244031,4600,3682,30,4908,2934,11160,2934,2,2730,1110,1620,15,2517,1691,10928661,23222855,1820,8953049,155,217985,265,1863935,374,2196037,2225134,7842,14094,University of Arkansas at Pine Bluff,70,62.80,7.20
106449,Arkansas State University-Beebe,1000 Iowa Street,Beebe,AR,72012-1000,3,2,Town: Fringe,4,White County,"Degree-granting, Associates and certificates",-91.895351,35.074176,0,0,0,2400,408,4128,408,2,5423,2205,3218,17,3739,482,2334814,7731271,1269,5367692,323,285843,256,537758,134,531917,2731460,2808,4536,Arkansas State University-Beebe,66,61.49,4.51
106458,Arkansas State University-Main Campus,2105 E. Aggie Road,Jonesboro,AR,72401,9,2,City: Small,2,Craighead County,"Degree-granting, primarily baccalaureate or above",-90.679988,35.842388,0,0,30,6300,2307,12990,2307,2,11038,4425,6613,18,9604,4902,35638259,65150333,3954,19652225,1041,1444917,1076,7307524,795,4817238,8862844,8607,15297,Arkansas State University-Main Campus,76,70.84,5.16
106467,Arkansas Tech University,Administration Bldg 200; 1509 N Boulder Ave,Russellville,AR,72801-2222,9,2,Town: Remote,2,Pope County,"Degree-granting, primarily baccalaureate or above",-93.13562,35.293237,4542,3328,0,5424,1830,10848,1830,2,12058,5448,6610,18,10781,4438,31000648,51080283,4264,18778486,1115,1275283,883,4990322,1004,6887470,10252455,7254,12678,Arkansas Tech University,70,68.06,1.94
106485,University of Arkansas at Monticello,Highway 425 South,Monticello,AR,71656,7,2,Town: Remote,3,Drew County,"Degree-granting, not primarily baccalaureate or above",-91.811153,33.590909,3390,3260,0,4650,2812,10500,2812,2,3841,1601,2240,14,3417,2055,13973268,16226195,1943,8583830,295,533171,334,1622755,392,1979957,3922575,7462,13312,University of Arkansas at Monticello,61,61.75,-0.75
106494,Arthur's Beauty College Inc-Jacksonville,2600 John Harden Dr,Jacksonville,AR,72076,2,2,Suburb: Large,6,Pulaski County,"Nondegree-granting, sub-baccalaureate",-92.102579,34.891572,0,0,0,9450,551,13356,576,2,84,7,77,12,84,47,277408,183437,54,182709,0,0,0,0,21,124035,1688138,10001,13932,Arthur's Beauty College Inc-Jacksonville,48,74.02,-26.02
106546,Baptist Health College Little Rock,11900 COLONEL GLENN RD STE 1000,Little Rock,AR,72210-2827,4,2,City: Midsize,4,Pulaski County,"Degree-granting, Associates and certificates",-92.40692,34.713115,0,0,0,8849,1590,8849,1590,2,928,129,799,10,676,546,2830046,1708920,525,1105506,8,2000,8,3800,7,8250,1688138,10439,10439,Baptist Health College Little Rock,86,59.61,26.39
106625,Black River Technical College,1410 Hwy 304 East,Pocahontas,AR,72455,3,2,Rural: Fringe,4,Randolph County,"Degree-granting, Associates and certificates",-90.951033,36.239793,0,0,0,2256,912,4536,912,2,1802,670,1132,15,1530,317,1752763,5040644,796,4275555,101,106666,32,74616,54,226598,1222111,3168,5448,Black River Technical College,47,60.50,-13.50
106704,University of Central Arkansas,201 Donaghey Ave,Conway,AR,72035-0001,9,2,City: Small,2,Faulkner County,"Degree-granting, primarily baccalaureate or above",-92.457672,35.077945,3760,3094,25,6523,2228,13046,2228,2,10616,4420,6196,15,9542,4994,38460812,62272917,4101,17435867,1377,2058076,1158,7685965,994,8493177,11573256,8751,15274,University of Central Arkansas,74,71.53,2.47
106713,Central Baptist College,1501 College Avenue,Conway,AR,72034,5,2,City: Small,2,Faulkner County,"Degree-granting, primarily baccalaureate or above",-92.445021,35.083838,0,0,25,14700,1500,14700,1500,2,859,474,385,11,745,454,3274346,5488101,348,1497949,58,61000,131,785684,99,555915,1688138,16200,16200,Central Baptist College,54,62.70,-8.70
106795,Cossatot Community College of the University of Arkansas,183 College Drive,De Queen,AR,71832,3,2,Rural: Fringe,4,Sevier County,"Degree-granting, Associates and certificates",-94.3673,34.043389,0,0,0,2550,1290,3000,1290,2,1983,716,1267,16,1476,0,0,3989684,537,2763507,107,117953,40,51675,0,0,908730,3840,4290,Cossatot Community College of the University of Arkansas,60,58.17,1.83
106810,Crowley's Ridge College,100 College Dr,Paragould,AR,72450,5,2,Rural: Fringe,2,Greene County,"Degree-granting, primarily baccalaureate or above",-90.584395,36.064845,2800,3550,0,11250,2350,11250,2350,2,224,114,110,8,214,154,1063309,1689797,86,476490,30,28500,64,360123,63,372471,1688138,13600,13600,Crowley's Ridge College,41,62.98,-21.98
106829,Crowley's Ridge Technical Institute,1620 Newcastle Road,Forrest City,AR,72335-0925,2,2,Town: Distant,6,St. Francis County,"Nondegree-granting, sub-baccalaureate",-90.767321,35.039816,0,0,0,1350,0,1350,0,2,184,116,68,6,164,0,0,739650,124,707322,6,9931,4,2970,0,0,298631,1350,1350,Crowley's Ridge Technical Institute,48,68.12,-20.12
106883,East Arkansas Community College,1700 Newcastle Rd,Forrest City,AR,72335-2204,3,2,Town: Distant,4,St. Francis County,"Degree-granting, Associates and certificates",-90.767726,35.041655,0,0,0,2850,330,3450,330,2,1575,527,1048,9,1045,49,165040,3590516,634,3204396,22,18500,25,33762,5,10300,469406,3180,3780,East Arkansas Community College,56,62.21,-6.21
106892,Eastern College of Health Vocations-Little Rock,200 South University Avenue,Little Rock,AR,72205,1,2,City: Midsize,6,Pulaski County,"Nondegree-granting, sub-baccalaureate",-92.341891,34.75128,0,0,100,9450,551,13356,576,2,413,9,404,13,413,367,1089503,2430291,342,1340788,0,0,0,0,264,958762,1688138,10001,13932,Eastern College of Health Vocations-Little Rock,72,73.22,-1.22
106908,Imagine-Paul Mitchell Partner School,4201 E McCain Blvd,North Little Rock,AR,72117,2,2,City: Small,6,Pulaski County,"Nondegree-granting, sub-baccalaureate",-92.222202,34.789913,0,0,100,9450,551,13356,576,2,568,30,538,11,568,397,3624968,2020522,397,1747985,0,0,0,0,127,1314938,1688138,10001,13932,Imagine-Paul Mitchell Partner School,72,73.25,-1.25
106980,National Park College,101 College Dr,Hot Springs,AR,71913,4,2,Suburb: Small,4,Garland County,"Degree-granting, Associates and certificates",-93.119248,34.512687,0,0,0,2940,840,4020,930,2,3429,1333,2096,19,2768,940,4610514,8485856,1816,6948682,139,85133,167,283812,94,420752,1807065,3780,4950,National Park College,54,59.12,-5.12
106999,University of Arkansas Community College-Batesville,2005 White Drive,Batesville,AR,72503-3350,3,2,Town: Remote,4,Independence County,"Degree-granting, Associates and certificates",-91.615852,35.792923,0,0,0,2112,706,2568,706,2,1544,494,1050,17,1246,214,1087007,3765333,626,2784600,113,101767,116,190317,30,139364,771486,2818,3274,University of Arkansas Community College-Batesville,63,60.09,2.91
107044,Harding University,915 E. Market Ave.,Searcy,AR,72149-5615,9,2,Town: Distant,2,White County,"Degree-granting, primarily baccalaureate or above",-91.726041,35.247337,3658,4076,50,19140,500,19140,500,2,4530,2023,2507,16,4184,2258,16368430,38148934,1056,4554158,238,398375,895,7860697,553,4079855,1688138,19640,19640,Harding University,85,75.23,9.77
107071,Henderson State University,1100 Henderson Street,Arkadelphia,AR,71999-0001,8,2,Town: Distant,2,Clark County,"Degree-granting, primarily baccalaureate or above",-93.059703,34.128155,4200,3200,0,6630,1806,8280,1806,2,3151,1380,1771,14,2832,1848,11328001,24235530,1436,6915255,344,238928,157,442927,149,775155,1152282,8436,10086,Henderson State University,64,62.25,1.75
107080,Hendrix College,1600 Washington Ave,Conway,AR,72032-3080,7,2,City: Small,2,Faulkner County,"Degree-granting, primarily baccalaureate or above",-92.443256,35.101565,6324,5960,0,45440,350,45440,350,2,1521,731,790,10,1218,638,4200224,42260489,348,1557660,187,547500,338,11402256,180,1219434,1688138,45790,45790,Hendrix College,86,81.07,4.93
107099,Hot Springs Beauty College,100 Cones Rd,Hot Springs,AR,71901,2,2,City: Small,6,Garland County,"Nondegree-granting, sub-baccalaureate",-93.037277,34.496057,0,0,0,9450,551,13356,576,2,47,1,46,12,47,40,230111,169906,42,169906,0,0,0,0,7,43400,1688138,10001,13932,Hot Springs Beauty College,100,71.89,28.11
107123,Jefferson Regional Medical Center School of Nursing,1600 West 40th Avenue,Pine Bluff,AR,71603,3,2,City: Small,4,Jefferson County,"Degree-granting, Associates and certificates",-92.018045,34.187831,0,0,35,9450,551,13356,576,2,128,15,113,8,128,72,398170,334203,76,306317,12,27016,19,27623,54,342649,1688138,10001,13932,Jefferson Regional Medical Center School of Nursing,72,73.52,-1.52
107141,John Brown University,2000 W University St,Siloam Springs,AR,72761,8,2,Town: Distant,2,Benton County,"Degree-granting, primarily baccalaureate or above",-94.560283,36.189812,0,0,25,25750,1178,25750,1178,2,2158,914,1244,14,1972,892,6188087,24319271,576,2397206,122,217000,309,4562405,176,1061876,1688138,26928,26928,John Brown University,80,69.06,10.94
107220,Career Academy of Hair Design,346 E. Robinson Ave,Springdale,AR,72764-7128,2,2,City: Small,6,Washington County,"Nondegree-granting, sub-baccalaureate",-94.12947,36.167605,0,0,0,9450,551,13356,576,2,295,17,278,9,295,212,1368378,837895,207,769846,17,48263,15,3216,148,989402,1688138,10001,13932,Career Academy of Hair Design,78,72.72,5.28
107293,Academy of Salon and Spa,311 S 16th St,Fort Smith,AR,72901,2,2,City: Small,6,Sebastian County,"Nondegree-granting, sub-baccalaureate",-94.41616,35.38097,0,0,100,9450,551,13356,576,2,92,1,91,27,92,66,425688,308009,69,308009,0,0,0,0,27,169156,1688138,10001,13932,Academy of Salon and Spa,64,72.16,-8.16
107318,Arkansas State University Mid-South,2000 W.  Broadway,West Memphis,AR,72301-3829,3,2,Suburb: Large,4,Crittenden County,"Degree-granting, Associates and certificates",-90.22285,35.145736,0,0,0,2688,514,3648,514,2,2029,776,1253,11,1561,0,0,3730088,668,3182307,25,13500,34,41029,0,0,312994,3202,4162,Arkansas State University Mid-South,45,56.84,-11.84
107327,Arkansas Northeastern College,2501 S Division,Blytheville,AR,72316-1109,3,2,Rural: Fringe,4,Mississippi County,"Degree-granting, Associates and certificates",-89.921005,35.898597,0,0,0,2240,358,3640,358,2,2066,740,1326,15,1474,0,0,4251083,522,2645258,40,37000,75,216120,1,4000,797065,2598,3998,Arkansas Northeastern College,56,59.95,-3.95
107442,New Tyler Barber College Inc,1221 E 7th St,North Little Rock,AR,72114-4973,2,2,City: Small,6,Pulaski County,"Nondegree-granting, sub-baccalaureate",-92.254171,34.760085,0,0,0,9450,551,13356,576,2,69,45,24,20,69,26,198886,264081,53,205876,0,0,0,0,7,59843,1688138,10001,13932,New Tyler Barber College Inc,80,64.58,15.42
107460,North Arkansas College,1515 Pioneer Dr,Harrison,AR,72601-5508,3,2,Town: Remote,4,Boone County,"Degree-granting, Associates and certificates",-93.08844,36.219909,0,0,0,2304,576,4056,576,2,2311,879,1432,14,1821,247,1292921,5871282,985,4209052,186,209285,135,228101,47,204362,1613109,2880,4632,North Arkansas College,54,61.03,-7.03
107488,Northwest Technical Institute,709 S Old Missouri Rd,Springdale,AR,72764,2,2,City: Small,6,Washington County,"Nondegree-granting, sub-baccalaureate",-94.115346,36.178032,0,0,10,1890,305,1890,305,2,288,166,122,6,192,0,0,535213,126,456093,4,7513,27,46558,0,0,366544,2195,2195,Northwest Technical Institute,39,60.96,-21.96
107512,Ouachita Baptist University,410 Ouachita St,Arkadelphia,AR,71998-0001,5,2,Town: Distant,2,Clark County,"Degree-granting, primarily baccalaureate or above",-93.052471,34.126093,3800,4080,0,26200,590,26200,590,2,1656,753,903,12,1523,970,6030710,28876220,446,2064852,275,497000,444,7449503,344,2153495,1688138,26790,26790,Ouachita Baptist University,83,74.16,8.84
107521,College of the Ouachitas,One College Circle,Malvern,AR,72104-0816,3,2,Town: Fringe,4,Hot Spring County,"Degree-granting, Associates and certificates",-92.821416,34.378745,0,0,0,2910,980,5820,980,2,1692,662,1030,11,1272,237,1298821,2415078,400,1578993,37,36655,21,43552,18,64895,402045,3890,6800,College of the Ouachitas,49,54.22,-5.22
107549,Ozarka College,218 College Dr,Melbourne,AR,72556-0010,3,2,Rural: Remote,4,Izard County,"Degree-granting, Associates and certificates",-91.896355,36.053031,3200,0,0,2160,844,4512,844,2,1588,449,1139,14,1186,270,1135561,4747692,641,2626568,44,38940,48,102209,40,161864,739521,3004,5356,Ozarka College,79,60.62,18.38
107558,University of the Ozarks,415 N College Ave,Clarksville,AR,72830,5,2,Town: Remote,2,Johnson County,"Degree-granting, primarily baccalaureate or above",-93.467221,35.476278,3400,4000,0,24230,0,24230,0,2,800,405,395,15,755,385,2437544,14813019,305,1467093,75,107077,249,3834257,183,1167537,1688138,24230,24230,University of the Ozarks,75,66.87,8.13
107585,University of Arkansas Community College-Morrilton,1537 University Blvd.,Morrilton,AR,72110,3,2,Town: Distant,4,Conway County,"Degree-granting, Associates and certificates",-92.728507,35.172136,0,0,0,2424,956,3120,956,2,2513,923,1590,22,1921,432,2052824,5885559,1014,4375814,197,187427,192,260357,72,305834,1641845,3380,4076,University of Arkansas Community College-Morrilton,57,59.12,-2.12
107600,Philander Smith College,900 W. Daisy Bates Drive,Little Rock,AR,72202-3799,5,1,City: Midsize,2,Pulaski County,"Degree-granting, primarily baccalaureate or above",-92.283015,34.737131,5192,3058,25,11804,1210,11804,1210,2,1049,402,647,16,891,755,5773612,9081653,724,4009503,37,49597,244,1997168,280,1949944,1688138,13014,13014,Philander Smith College,69,60.22,8.78
107619,Phillips Community College of the University of Arkansas,1000 Campus Drive,Helena,AR,72342-0785,3,2,Rural: Fringe,4,Phillips County,"Degree-granting, Associates and certificates",-90.616884,34.546155,0,0,0,2520,800,3960,800,2,2144,841,1303,13,1636,0,0,3023167,571,2486997,25,24000,22,37414,0,0,573405,3320,4760,Phillips Community College of the University of Arkansas,54,59.13,-5.13
107637,Southeast Arkansas College,1900 Hazel St.,Pine Bluff,AR,71603,3,2,City: Small,4,Jefferson County,"Degree-granting, Associates and certificates",-92.025936,34.210309,0,0,0,2880,975,5760,975,2,1792,562,1230,13,1301,659,2463067,5220330,833,4490828,19,14500,48,39098,106,328819,1011301,3855,6735,Southeast Arkansas College,53,58.35,-5.35
107655,Professional Cosmetology Education Center,460 North Washington,El Dorado,AR,71730-4009,2,2,Town: Remote,6,Union County,"Nondegree-granting, sub-baccalaureate",-92.664101,33.216032,0,0,100,9450,551,13356,576,2,40,1,39,15,40,28,162443,169936,31,143400,1,6225,0,0,4,25188,1688138,10001,13932,Professional Cosmetology Education Center,67,74.54,-7.54
107664,University of Arkansas-Pulaski Technical College,3000 W Scenic Dr,North Little Rock,AR,72118-3347,4,2,City: Small,4,Pulaski County,"Degree-granting, Associates and certificates",-92.299184,34.782783,0,0,0,3982,1270,5177,1270,2,8048,2943,5105,17,6038,2613,11313146,15245043,2983,11788350,440,122574,107,466607,273,863443,2045598,5252,6447,University of Arkansas-Pulaski Technical College,55,60.19,-5.19
107725,University of Arkansas Community College-Hope,2500 S Main,Hope,AR,71801,3,2,Town: Distant,4,Hempstead County,"Degree-granting, Associates and certificates",-93.596762,33.641665,0,0,0,2250,820,3270,820,2,2078,657,1421,16,1536,0,0,4451887,908,3450974,69,68638,74,102845,0,0,899859,3070,4090,University of Arkansas Community College-Hope,60,59.71,0.29
107743,University of Arkansas Community College Rich Mountain,1100 College Dr,Mena,AR,71953,3,2,Town: Remote,4,Polk County,"Degree-granting, Associates and certificates",-94.219799,34.591449,0,0,0,2280,936,3000,936,2,1187,376,811,19,938,0,0,2154241,356,1611304,52,71065,42,68204,0,0,611555,3216,3936,University of Arkansas Community College Rich Mountain,57,58.89,-1.89
107789,Paul Mitchell the School-Arkansas,4156 N Steele Blvd,Fayetteville,AR,72703,2,2,City: Small,6,Washington County,"Nondegree-granting, sub-baccalaureate",-94.153892,36.126373,0,0,100,9450,551,13356,576,2,156,6,150,25,156,88,785662,358712,79,323524,2,15179,10,9700,34,340645,1688138,10001,13932,Paul Mitchell the School-Arkansas,79,73.32,5.68
107831,Searcy Beauty College,1004 S Main St,Searcy,AR,72143,2,2,Town: Distant,6,White County,"Nondegree-granting, sub-baccalaureate",-91.735135,35.239148,0,0,170,9450,551,13356,576,2,111,4,107,20,111,76,664742,382564,79,382564,0,0,0,0,33,296333,1688138,10001,13932,Searcy Beauty College,62,71.36,-9.36
107840,Shorter College,604 Locust St,N Little Rock,AR,72114,3,1,City: Small,4,Pulaski County,"Degree-granting, Associates and certificates",-92.261331,34.75933,0,0,0,4104,1396,4104,1396,2,1099,619,480,16,521,512,4443078,3061233,512,2819833,0,0,12,8160,76,722000,1688138,5500,5500,Shorter College,0,56.66,-56.66
107877,Williams Baptist University,60 W Fulbright Avenue,Walnut Ridge,AR,72476,7,2,Rural: Distant,2,Lawrence County,"Degree-granting, primarily baccalaureate or above",-90.940277,36.125676,0,0,0,16200,1120,16200,1120,2,539,314,225,14,457,312,1738994,5725457,229,998960,70,104200,142,1133208,95,501398,1688138,17320,17320,Williams Baptist University,52,66.34,-14.34
107974,South Arkansas Community College,300 S West Ave,El Dorado,AR,71731-7010,3,2,Town: Remote,4,Union County,"Degree-granting, Associates and certificates",-92.666087,33.209446,0,0,0,2328,684,4128,684,2,2070,581,1489,15,1481,453,1955685,4223068,855,3203807,36,48824,23,47897,39,129496,470510,3012,4812,South Arkansas Community College,50,60.32,-10.32
107983,Southern Arkansas University Main Campus,100 E. University,Magnolia,AR,71753,7,2,Town: Remote,2,Columbia County,"Degree-granting, primarily baccalaureate or above",-93.235922,33.291618,3988,3130,0,6840,1836,10950,1836,2,3866,1713,2153,17,3475,2642,13417636,27717327,1708,8074929,458,528540,706,4673000,500,2732375,5248678,8676,12786,Southern Arkansas University Main Campus,65,66.48,-1.48
107992,Southern Arkansas University Tech,6415 Spellman Road,Camden,AR,71701-1906,3,2,Rural: Distant,4,Calhoun County,"Degree-granting, Associates and certificates",-92.721629,33.628367,2800,0,50,3240,1737,4680,1737,2,1976,1097,879,13,1010,114,432127,3944496,406,2196738,65,139274,43,133755,102,437027,811760,4977,6417,Southern Arkansas University Tech,69,64.21,4.79
108056,University of Arkansas System Office,2404 N University,Little Rock,AR,72207-3608,9,2,City: Midsize,-2,Pulaski County,-2,-92.343714,34.775989,0,0,0,9450,551,13356,576,2,671.5,220,403.5,14,584.5,226,1475790,2060116.5,281.5,1167639,12,27016,19,27623,54,342649,1688138,10001,13932,University of Arkansas System Office,72,71.39,0.61
108065,Velvatex College of Beauty Culture,1520 Martin Luther King Dr,Little Rock,AR,72202-5452,2,2,City: Midsize,6,Pulaski County,"Nondegree-granting, sub-baccalaureate",-92.289597,34.735685,0,0,100,9450,551,13356,576,2,15,0,15,12,15,9,85600,96960,11,65120,2,15000,2,16840,9,84600,1688138,10001,13932,Velvatex College of Beauty Culture,75,71.96,3.04
108092,University of Arkansas-Fort Smith,5210 Grand Ave,Fort Smith,AR,72913-3649,7,2,City: Small,2,Sebastian County,"Degree-granting, primarily baccalaureate or above",-94.373729,35.384184,4846,3580,0,3991,1602,11064,1602,2,7517,3275,4242,17,6620,2420,14603230,28253066,2872,12719534,585,624042,461,1705573,428,1984501,5199496,5593,12666,University of Arkansas-Fort Smith,64,63.28,0.72
108232,Academy of Art University,79 New Montgomery,San Francisco,CA,94105,7,2,City: Large,2,San Francisco County,"Degree-granting, primarily baccalaureate or above",-122.400578,37.787943,10996,5652,50,22008,300,22008,300,2,9827,4282,5545,14,7652,3509,25161944,33015263,2772,10361072,57,297016,165,1367262,221,1442630,1688138,22308,22308,Academy of Art University,78,75.68,2.32
108269,Academy of Chinese Culture and Health Sciences,"1600 Broadway, Ste. 200",Oakland,CA,94612,9,2,City: Large,1,Alameda County,"Degree-granting, graduate with no undergraduate degrees",-122.269839,37.805972,0,0,0,0,0,0,0,2,671.5,220,403.5,14,584.5,226,1475790,2060116.5,281.5,1167639,12,27016,19,27623,54,342649,1688138,0,0,Academy of Chinese Culture and Health Sciences,72,72.18,-0.18
108348,The Academy of Radio and TV Broadcasting,16052 Beach Blvd St 263n,Huntington Beach,CA,92647,2,2,Suburb: Large,6,Orange County,"Nondegree-granting, sub-baccalaureate",-117.987762,33.729535,0,0,0,9450,551,13356,576,2,36,20,16,3,36,36,342000,165200,32,165200,0,0,0,0,32,304000,1688138,10001,13932,The Academy of Radio and TV Broadcasting,77,76.22,0.78
108649,Avalon School of Cosmetology-Alameda,2318 Central Avenue,Alameda,CA,94501,2,2,Suburb: Large,6,Alameda County,"Nondegree-granting, sub-baccalaureate",-122.243566,37.764203,0,0,50,9450,551,13356,576,2,218,8,210,22,218,124,695640,528541,146,505541,0,0,1,1500,42,232805,1688138,10001,13932,Avalon School of Cosmetology-Alameda,82,75.20,6.80
108667,College of Alameda,555 Ralph Appezzato Memorial Pky,Alameda,CA,94501,3,2,Suburb: Large,4,Alameda County,"Degree-granting, Associates and certificates",-122.279303,37.781017,0,0,0,1104,150,7296,510,2,10615,4462,6153,27,5760,39,265978,7414975,1119,4426167,153,278619,0,0,3,24244,790250,1254,7806,College of Alameda,65,66.36,-1.36
108807,Allan Hancock College,800 South College Drive,Santa Maria,CA,93454-6399,4,2,City: Midsize,4,Santa Barbara County,"Degree-granting, Associates and certificates",-120.421144,34.943716,0,0,0,1288,62,6750,62,2,17070,8123,8947,22,11739,159,959772,18843817,2471,9301956,621,1428311,8,3450,10,38775,3345948,1350,6812,Allan Hancock College,75,69.84,5.16
108852,American Academy of Dramatic Arts-Los Angeles,1336 North La Brea Avenue,Los Angeles,CA,90028,3,2,City: Large,4,Los Angeles County,"Degree-granting, Associates and certificates",-118.343701,34.095378,11655,0,50,34410,750,34410,750,2,310,135,175,14,280,143,2448514,2429586,77,358624,0,0,111,886774,84,1764843,1688138,35160,35160,American Academy of Dramatic Arts-Los Angeles,79,74.78,4.22
108861,American Baptist Seminary of the West,2606 Dwight Way,Berkeley,CA,94704-3029,9,2,City: Midsize,1,Alameda County,"Degree-granting, graduate with no undergraduate degrees",-122.256149,37.865252,0,0,0,0,0,0,0,2,671.5,220,403.5,14,584.5,226,1475790,2060116.5,281.5,1167639,12,27016,19,27623,54,342649,1688138,0,0,American Baptist Seminary of the West,72,72.18,-0.18
108870,American Film Institute Conservatory,2021 N Western Ave,Los Angeles,CA,90027-1625,7,2,City: Large,1,Los Angeles County,"Degree-granting, graduate with no undergraduate degrees",-118.310018,34.10767,0,0,0,0,0,0,0,2,671.5,220,403.5,14,584.5,226,1475790,2060116.5,281.5,1167639,12,27016,19,27623,54,342649,1688138,0,0,American Film Institute Conservatory,72,71.83,0.17
108977,American Beauty College,646 S. Sunset Ave,West Covina,CA,91790,2,2,Suburb: Large,6,Los Angeles County,"Nondegree-granting, sub-baccalaureate",-117.936959,34.069367,0,0,100,9450,551,13356,576,2,192,92,100,25,192,92,322665,604963,114,511395,0,0,7,8968,17,70429,1688138,10001,13932,American Beauty College,82,72.78,9.22
109040,American Career College-Los Angeles,4021 Rosewood Avenue,Los Angeles,CA,90004,3,2,City: Large,4,Los Angeles County,"Degree-granting, Associates and certificates",-118.292481,34.079323,0,0,25,9450,551,13356,576,2,2038,417,1621,42,2038,1164,8869706,6545189,1311,5164749,52,130760,147,393550,452,3534774,1688138,10001,13932,American Career College-Los Angeles,71,67.35,3.65
109086,American Conservatory Theater,30 Grant Ave,San Francisco,CA,94108-5834,7,2,City: Large,1,San Francisco County,"Degree-granting, graduate with no undergraduate degrees",-122.40475,37.787343,0,0,90,29355,205,29355,205,2,84,24,60,6,13,1,7500,21170,1,5920,0,0,1,11250,1,7500,1688138,29560,29560,American Conservatory Theater,72,75.57,-3.57
109208,American River College,4700 College Oak Dr,Sacramento,CA,95841-4286,4,2,Suburb: Large,4,Sacramento County,"Degree-granting, Associates and certificates",-121.349672,38.65085,0,0,0,0,1104,7608,1104,2,46394,24747,21647,27,31858,957,6658190,40782025,6844,23409123,916,1839184,15,19262,39,237720,4825912,1104,8712,American River College,71,70.68,0.32
109350,Antelope Valley College,3041 West  Ave K,Lancaster,CA,93536-5426,5,2,Suburb: Large,3,Los Angeles County,"Degree-granting, not primarily baccalaureate or above",-118.186166,34.676207,0,0,0,1104,20,6480,20,2,18532,7689,10843,23,14125,1634,7382868,36352913,6492,22775002,907,2019418,0,0,93,333478,5490129,1124,6500,Antelope Valley College,72,70.10,1.90
109651,Art Center College of Design,1700 Lida St,Pasadena,CA,91103,7,2,City: Midsize,2,Los Angeles County,"Degree-granting, primarily baccalaureate or above",-118.185102,34.169031,0,0,50,42816,600,42816,600,2,2716,1292,1424,8,2005,971,7471464,20475832,616,2793371,35,303116,123,1957148,96,564465,1688138,43416,43416,Art Center College of Design,83,76.72,6.28
109721,Associated Technical College-Los Angeles,1670 Wilshire Blvd,Los Angeles,CA,90017-1604,2,2,City: Large,6,Los Angeles County,"Nondegree-granting, sub-baccalaureate",-118.272364,34.056102,0,0,75,9450,551,13356,576,2,570,285,285,24,570,278,1991563,2223349,498,2161749,0,0,0,0,266,1905596,1688138,10001,13932,Associated Technical College-Los Angeles,65,72.61,-7.61
109730,Associated Technical College-San Diego,707 Broadway-Ste 300,San Diego,CA,92101,1,2,City: Large,6,San Diego County,"Nondegree-granting, sub-baccalaureate",-117.157988,32.715375,0,0,100,9450,551,13356,576,2,253,208,45,15,253,144,830788,1620120,191,718833,0,0,0,0,123,807288,1688138,10001,13932,Associated Technical College-San Diego,72,73.20,-1.20
109785,Azusa Pacific University,901 E Alosta,Azusa,CA,91702-7000,9,2,Suburb: Large,2,Los Angeles County,"Degree-granting, primarily baccalaureate or above",-117.888375,34.130047,6016,4060,45,38300,580,38300,580,2,6239,2116,4123,11,5671,3084,21591634,107187463,1849,7965077,310,2399762,967,17723206,578,4385062,1688138,38880,38880,Azusa Pacific University,81,82.59,-1.59
109819,Bakersfield College,1801 Panorama Dr,Bakersfield,CA,93305-1299,5,2,City: Large,3,Kern County,"Degree-granting, not primarily baccalaureate or above",-118.973753,35.40911,0,0,0,1288,37,7224,37,2,33600,15604,17996,30,23205,360,2489456,48209083,7937,29994577,1647,3381036,96,92224,17,96825,9348589,1325,7261,Bakersfield College,72,69.63,2.37
109907,Barstow Community College,2700 Barstow Road,Barstow,CA,92311,3,2,Town: Distant,4,San Bernardino County,"Degree-granting, Associates and certificates",-117.023412,34.870285,0,0,0,1104,0,6720,0,2,4588,1563,3025,25,3077,0,0,9463954,1598,6470187,225,412947,129,41096,0,0,1439740,1104,6720,Barstow Community College,65,66.46,-1.46
109934,Bellus Academy-Chula Vista,970 Broadway,Chula Vista,CA,91911,4,2,Suburb: Large,6,San Diego County,"Nondegree-granting, sub-baccalaureate",-117.083738,32.614773,0,0,75,9450,551,13356,576,2,307,82,225,16,307,180,1589889,1866584,233,1034562,0,0,40,8010,79,753364,1688138,10001,13932,Bellus Academy-Chula Vista,82,72.95,9.05
110060,Bethesda University,730 N. Euclid St,Anaheim,CA,92801,9,2,City: Large,2,Orange County,"Degree-granting, primarily baccalaureate or above",-117.941323,33.842295,0,0,50,7875,200,7875,200,2,334,215,119,7,268,74,534024,648692,83,370334,1,3638,15,24057,15,102097,1688138,8075,8075,Bethesda University,38,69.61,-31.61
110097,Biola University,13800 Biola Ave,La Mirada,CA,90639-0001,9,2,Suburb: Large,2,Los Angeles County,"Degree-granting, primarily baccalaureate or above",-118.014374,33.906203,6200,5112,45,40488,0,40488,0,2,4203,1531,2672,14,3958,2345,16050761,80196154,1254,5598931,243,1950750,865,14873280,543,4456407,1688138,40488,40488,Biola University,86,82.68,3.32
110194,Brownson Technical School,1110 Technology Cir Ste D,Anaheim,CA,92805,2,2,City: Large,6,Orange County,"Nondegree-granting, sub-baccalaureate",-117.905774,33.819032,0,0,0,9450,551,13356,576,2,307,304,3,10,307,234,2075320,1353168,233,1254269,0,0,0,0,196,2151820,1688138,10001,13932,Brownson Technical School,97,78.55,18.45
110219,Bryan University,350 W Washington St,Tempe,AZ,85281,7,2,City: Midsize,3,Maricopa County,"Degree-granting, not primarily baccalaureate or above",-111.944197,33.437779,0,0,25,10576,25,10576,25,2,2144,874,1270,28,1247,919,7400259,3800462,878,3689676,0,0,0,0,173,1820839,1688138,10601,10601,Bryan University,45,57.62,-12.62
110246,Butte College,3536 Butte Campus Drive,Oroville,CA,95965-8399,4,2,Rural: Distant,4,Butte County,"Degree-granting, Associates and certificates",-121.644831,39.649782,0,0,0,1104,264,6720,264,2,14144,6530,7614,21,10863,676,3807100,27174130,4331,16220242,817,1866188,190,85700,50,248854,4907403,1368,6984,Butte College,74,68.38,5.62
110307,Phillips Graduate University,19900 Plummer Street,Chatsworth,CA,91311,9,2,City: Large,1,Los Angeles County,"Degree-granting, graduate with no undergraduate degrees",-118.567688,34.242,0,0,0,0,0,0,0,2,671.5,220,403.5,14,584.5,226,1475790,2060116.5,281.5,1167639,12,27016,19,27623,54,342649,1688138,0,0,Phillips Graduate University,72,71.83,0.17
110316,California Institute of Integral Studies,1453 Mission Street,San Francisco,CA,94103,9,2,City: Large,2,San Francisco County,"Degree-granting, primarily baccalaureate or above",-122.416102,37.774924,0,0,65,19800,430,19800,430,2,106,23,83,12,50,40,353795,297352,39,210392,12,27016,19,27623,54,342649,1688138,20230,20230,California Institute of Integral Studies,72,71.82,0.18
110334,Cabrillo College,6500 Soquel Dr,Aptos,CA,95003,3,2, Suburb: Midsize,4,Santa Cruz County,"Degree-granting, Associates and certificates",-121.924797,36.989448,0,0,0,1104,166,7296,166,2,17467,8586,8881,21,11836,203,1382971,17941681,2506,9425679,552,1189452,108,62597,8,36429,2921773,1270,7462,Cabrillo College,72,70.56,1.44
110361,California Baptist University,8432 Magnolia Ave,Riverside,CA,92504-3297,9,2,City: Large,2,Riverside County,"Degree-granting, primarily baccalaureate or above",-117.425619,33.929321,5860,5440,45,31668,1810,31668,1810,2,8518,3200,5318,14,7414,5166,41769915,103304532,3412,15868896,569,3920694,1290,19587530,924,7074006,1688138,33478,33478,California Baptist University,76,82.63,-6.63
110370,California College of the Arts,1111 Eighth Street,San Francisco,CA,94107-2247,7,2,City: Large,2,San Francisco County,"Degree-granting, primarily baccalaureate or above",-122.399451,37.767485,10136,0,70,48648,490,48648,490,2,1694,585,1109,11,1486,720,5821873,23933710,403,1961098,37,167304,215,4615524,137,1409447,1688138,49138,49138,California College of the Arts,81,84.20,-3.20
110398,University of California-Hastings College of Law,200 McAllister Street,San Francisco,CA,94102-4978,9,2,City: Large,1,San Francisco County,"Degree-granting, graduate with no undergraduate degrees",-122.4157,37.781137,15050,0,0,0,0,0,0,2,671.5,220,403.5,14,584.5,226,1475790,2060116.5,281.5,1167639,12,27016,19,27623,54,342649,1688138,0,0,University of California-Hastings College of Law,72,72.79,-0.79
110404,California Institute of Technology,1200 E California Blvd,Pasadena,CA,91125,9,2,City: Midsize,2,Los Angeles County,"Degree-granting, primarily baccalaureate or above",-118.125878,34.137349,8895,6630,75,50487,1875,50487,1875,2,989,554,435,3,961,45,256551,22317671,136,618165,6,54504,114,4556624,50,238283,1688138,52362,52362,California Institute of Technology,98,84.17,13.83
110413,California Lutheran University,60 W Olsen Rd,Thousand Oaks,CA,91360-2787,9,2,City: Midsize,2,Ventura County,"Degree-granting, primarily baccalaureate or above",-118.878924,34.224566,7330,6320,25,42210,482,42210,482,2,3286,1406,1880,16,2963,1618,12082059,66397242,892,4187170,203,1725460,563,12671479,341,2369037,1688138,42692,42692,California Lutheran University,83,81.38,1.62
110422,California Polytechnic State University-San Luis Obispo,1 Grand Ave.,San Luis Obispo,CA,93407,8,2,Suburb: Small,2,San Luis Obispo County,"Degree-granting, primarily baccalaureate or above",-120.657311,35.299513,8259,5537,55,5742,4074,17622,4074,2,22352,11567,10785,21,21351,6490,39013441,76369929,3881,17199672,1505,4249453,1864,7584462,1675,9582560,13258923,9816,21696,California Polytechnic State University-San Luis Obispo,94,79.95,14.05
110468,Alliant International University-San Diego,10455 Pomerado Road,San Diego,CA,92131,9,2,City: Large,2,San Diego County,"Degree-granting, primarily baccalaureate or above",-117.094398,32.897056,0,0,65,16865,450,16865,450,2,2078,985,1093,13,1194,93,940981,715355,48,217978,1,1672,0,0,3,20500,1688138,17315,17315,Alliant International University-San Diego,67,69.41,-2.41
110486,California State University-Bakersfield,9001 Stockdale Hwy,Bakersfield,CA,93311-1099,9,2,City: Large,2,Kern County,"Degree-granting, primarily baccalaureate or above",-119.104711,35.350005,10118,4061,55,5742,1567,17622,1567,2,10500,4127,6373,24,8814,3016,19161835,66891985,5528,26364435,1031,2473639,1013,5895637,348,1828459,12864724,7309,19189,California State University-Bakersfield,78,77.91,0.09
110495,California State University-Stanislaus,One University Circle,Turlock,CA,95382-0299,9,2,Suburb: Small,2,Stanislaus County,"Degree-granting, primarily baccalaureate or above",-120.852511,37.52577,6702,3715,55,5742,1330,17622,1330,2,10226,3542,6684,22,9057,3208,18792021,64361966,5589,25184828,1095,2676286,813,4469885,400,1763365,11405760,7072,18952,California State University-Stanislaus,82,76.96,5.04
110501,California State University-Chancellors Office,"Analytic Studies 401 Golden Shore, 6th Floor",Long Beach,CA,90802-4210,9,2,City: Large,-2,Los Angeles County,-2,-118.201255,33.764338,0,0,0,9450,551,13356,576,2,671.5,220,403.5,14,584.5,226,1475790,2060116.5,281.5,1167639,12,27016,19,27623,54,342649,1688138,10001,13932,California State University-Chancellors Office,72,73.22,-1.22
110510,California State University-San Bernardino,5500 University Parkway,San Bernardino,CA,92407-2397,9,2,City: Midsize,2,San Bernardino County,"Degree-granting, primarily baccalaureate or above",-117.323801,34.182622,6606,4410,55,5742,1180,17622,1180,2,19495,7848,11647,29,18327,6439,39288106,140413677,11664,55720883,1804,4364476,1561,8713727,714,3299455,21586452,6922,18802,California State University-San Bernardino,86,83.37,2.63
110529,California State Polytechnic University-Pomona,3801 West Temple Avenue,Pomona,CA,91768,9,2,Suburb: Large,2,Los Angeles County,"Degree-granting, primarily baccalaureate or above",-117.821476,34.057912,9766,5270,55,5742,1611,17622,1611,2,25910,13981,11929,28,24319,7795,50414283,140307102,11869,55424289,2396,6278454,1279,6712919,1184,7158765,21241777,7353,19233,California State Polytechnic University-Pomona,87,81.01,5.99
110538,California State University-Chico,First and Normal Sts,Chico,CA,95929-0150,7,2,City: Small,2,Butte County,"Degree-granting, primarily baccalaureate or above",-121.844859,39.729712,7810,3520,55,5742,1866,17622,1866,2,18423,8639,9784,24,16710,7567,43746724,92361320,7668,36156338,1676,4238235,1107,6294822,1301,7071836,16783581,7608,19488,California State University-Chico,85,79.38,5.62
110547,California State University-Dominguez Hills,1000 E Victoria St,Carson,CA,90747-0005,8,2,City: Small,2,Los Angeles County,"Degree-granting, primarily baccalaureate or above",-118.255917,33.864766,9642,0,55,5742,1200,17622,1200,2,14480,5355,9125,25,13278,4064,27911963,92391317,8567,38403097,1306,2865695,1140,6209477,344,1487952,14911587,6942,18822,California State University-Dominguez Hills,78,78.95,-0.95
110556,California State University-Fresno,5241 N Maple Ave,Fresno,CA,93740,9,2,City: Large,2,Fresno County,"Degree-granting, primarily baccalaureate or above",-119.744569,36.811154,4973,4297,55,5742,845,17622,845,2,23662,9945,13717,23,22261,6743,40954601,162155818,13255,63148909,2182,5429845,1999,12509093,927,4487419,28608501,6587,18467,California State University-Fresno,81,84.18,-3.18
110565,California State University-Fullerton,800 N State College Blvd,Fullerton,CA,92831-3599,9,2,Suburb: Large,2,Orange County,"Degree-granting, primarily baccalaureate or above",-117.885446,33.881506,11844,4008,55,5742,1144,17622,1144,2,40621,17607,23014,25,35162,10021,62707813,199489937,17513,80021329,3009,8273571,1788,10031154,1267,7114152,29437880,6886,18766,California State University-Fullerton,88,84.75,3.25
110574,California State University-East Bay,25800 Carlos Bee Blvd,Hayward,CA,94542,9,2,City: Midsize,2,Alameda County,"Degree-granting, primarily baccalaureate or above",-122.054135,37.657694,8546,5000,55,5742,1241,17622,1241,2,15801,6063,9738,26,13474,4385,29250406,71302116,6295,28106067,938,2053075,754,4076966,517,2738901,9960684,6983,18863,California State University-East Bay,76,78.01,-2.01
110583,California State University-Long Beach,1250 Bellflower Blvd,Long Beach,CA,90840-0115,9,2,City: Large,2,Los Angeles County,"Degree-granting, primarily baccalaureate or above",-118.11204,33.782818,7650,4464,55,5742,1056,17622,1056,2,34141,14806,19335,23,31566,10197,63122249,191216888,16590,75747479,2832,7335111,1789,10228184,1267,6351614,27518189,6798,18678,California State University-Long Beach,87,84.75,2.25
110592,California State University-Los Angeles,5151 State University Dr,Los Angeles,CA,90032-8506,9,2,City: Large,2,Los Angeles County,"Degree-granting, primarily baccalaureate or above",-118.168965,34.066927,7587,3936,55,5742,1007,17622,1007,2,25757,10958,14799,24,24818,7265,46865404,191308667,17053,83139513,2929,6441097,2259,12130866,693,2967292,30923556,6749,18629,California State University-Los Angeles,82,84.67,-2.67
110608,California State University-Northridge,18111 Nordhoff St,Northridge,CA,91330,9,2,City: Large,2,Los Angeles County,"Degree-granting, primarily baccalaureate or above",-118.529319,34.240126,6848,4224,55,5742,1151,17622,1151,2,38245,17476,20769,26,35839,10600,66860825,239328980,20732,97875095,3950,8931886,3094,17994132,1654,8283392,43675256,6893,18773,California State University-Northridge,81,84.75,-3.75
110617,California State University-Sacramento,6000 J St,Sacramento,CA,95819-2694,9,2,City: Large,2,Sacramento County,"Degree-granting, primarily baccalaureate or above",-121.423549,38.559415,7407,4764,55,5742,1568,17622,1568,2,31737,14048,17689,26,28454,9665,62655050,177335682,15374,68959362,2528,6245026,1872,11041213,1149,5917375,27059299,7310,19190,California State University-Sacramento,81,85.11,-4.11
110635,University of California-Berkeley,200 California Hall,Berkeley,CA,94720,9,2,City: Midsize,2,Alameda County,"Degree-granting, primarily baccalaureate or above",-122.260463,37.871918,0,0,70,11442,2742,40434,2742,2,32309,15458,16851,20,30574,6666,37510841,329497323,8183,38098801,1575,17601024,3042,34272926,1336,8250093,50009528,14184,43176,University of California-Berkeley,97,90.66,6.34
110644,University of California-Davis,One Shields Avenue,Davis,CA,95616-8678,9,2,Suburb: Small,2,Yolo County,"Degree-granting, primarily baccalaureate or above",-121.749567,38.539667,0,0,70,11442,2960,40434,2960,2,32197,13216,18981,20,30066,10100,51955311,356211835,11492,54294722,2351,27235751,3306,33982337,1951,10147929,64083684,14402,43394,University of California-Davis,92,90.66,1.34
110653,University of California-Irvine,501 Aldrich Hall,Irvine,CA,92697,9,2,City: Large,2,Orange County,"Degree-granting, primarily baccalaureate or above",-117.841248,33.648434,0,0,70,11442,2258,40434,2258,2,30865,14575,16290,18,29307,10153,57389941,357260886,12345,59791751,3287,37223573,3421,26954223,2475,13153319,72493053,13700,42692,University of California-Irvine,93,90.34,2.66
110662,University of California-Los Angeles,405 Hilgard Ave,Los Angeles,CA,90095-1405,9,2,City: Large,2,Los Angeles County,"Degree-granting, primarily baccalaureate or above",-118.443901,34.068892,0,0,70,11442,1784,40434,1784,2,33160,14216,18944,18,31002,9825,60154685,349663464,10486,50193135,2238,25372196,3010,30648594,1906,12107820,55595159,13226,42218,University of California-Los Angeles,97,90.34,6.66
110671,University of California-Riverside,900 University Ave,Riverside,CA,92521,9,2,City: Large,2,Riverside County,"Degree-granting, primarily baccalaureate or above",-117.32741,33.97246,0,0,70,11442,2385,40434,2385,2,21540,10041,11499,23,20073,9534,53299475,302148957,10812,51737811,2996,33323383,3205,32980307,2324,12480684,72468181,13827,42819,University of California-Riverside,89,90.37,-1.37
110680,University of California-San Diego,9500 Gilman Dr,La Jolla,CA,92093,9,2,City: Large,2,San Diego County,"Degree-granting, primarily baccalaureate or above",-117.235866,32.877749,0,0,70,11442,2725,40434,2725,2,30143,15405,14738,19,28587,10159,53765828,302255122,10374,49295690,2636,30283442,2763,22383150,2217,12174106,58462131,14167,43159,University of California-San Diego,94,90.73,3.27
110699,University of California-San Francisco,500 Parnassus Ave,San Francisco,CA,94143-0244,9,2,City: Large,1,San Francisco County,"Degree-granting, graduate with no undergraduate degrees",-122.458489,37.763737,13880,0,0,0,0,0,0,2,671.5,220,403.5,14,584.5,226,1475790,2060116.5,281.5,1167639,12,27016,19,27623,54,342649,1688138,0,0,University of California-San Francisco,72,72.01,-0.01
110705,University of California-Santa Barbara,5221 Cheadle Hall,Santa Barbara,CA,93106,9,2, Suburb: Midsize,2,Santa Barbara County,"Degree-granting, primarily baccalaureate or above",-119.846426,34.416297,0,0,70,11442,2949,40434,2949,2,23559,10917,12642,22,22186,7659,44373935,255413658,8224,39131049,1860,21309033,2279,20258916,1688,10411558,46672573,14391,43383,University of California-Santa Barbara,92,90.37,1.63
110714,University of California-Santa Cruz,1156 High St,Santa Cruz,CA,95064-1011,9,2,City: Small,2,Santa Cruz County,"Degree-granting, primarily baccalaureate or above",-122.058801,36.995584,0,0,70,11442,2518,40434,2518,2,18534,9259,9275,19,17577,7438,43183793,223036860,6548,30401913,1746,19092242,2408,21676228,1720,10125051,41263620,13960,42952,University of California-Santa Cruz,88,90.50,-2.50
110778,Sofia University,1069 East Meadow Cr,Palo Alto,CA,94303,9,2,City: Small,2,Santa Clara County,"Degree-granting, primarily baccalaureate or above",-122.10866,37.430325,0,0,55,16800,400,16800,400,2,11,3,8,9,11,7,18558,11676,7,10342,12,27016,19,27623,54,342649,1688138,17200,17200,Sofia University,72,73.18,-1.18
110875,California Beauty School,1115 15th St,Modesto,CA,95354,2,2,City: Midsize,6,Stanislaus County,"Nondegree-granting, sub-baccalaureate",-120.99689,37.645217,0,0,0,9450,551,13356,576,2,131,2,129,20,131,64,313111,226674,59,226674,0,0,0,0,24,108403,1688138,10001,13932,California Beauty School,81,76.71,4.29
110918,California Christian College,5364 E. Belmont Avenue,Fresno,CA,93727,5,2,City: Large,3,Fresno County,"Degree-granting, not primarily baccalaureate or above",-119.711123,36.749366,4950,0,40,8880,690,8880,690,2,20,13,7,2,16,8,50299,59106,11,48918,0,0,0,0,2,19000,1688138,9570,9570,California Christian College,0,38.49,-38.49
110936,California Coast University,925 North Spurgeon Street,Santa Ana,CA,92701,9,2,City: Large,-1,Orange County,-1,-117.86524,33.753135,0,0,75,4500,0,4500,0,2,671.5,220,403.5,14,584.5,226,1475790,2060116.5,281.5,1167639,12,27016,19,27623,54,342649,1688138,4500,4500,California Coast University,72,68.46,3.54
111054,California Hair Design Academy,"8011 University Avenue, Suite A-2",La Mesa,CA,91942-5055,2,2,Suburb: Large,6,San Diego County,"Nondegree-granting, sub-baccalaureate",-117.024261,32.765221,0,0,75,9450,551,13356,576,2,370,140,230,18,370,125,584054,1094482,160,613571,0,0,0,0,38,191735,1688138,10001,13932,California Hair Design Academy,73,72.78,0.22
111081,California Institute of the Arts,24700 W McBean Pky,Valencia,CA,91355-2397,9,2,Suburb: Large,2,Los Angeles County,"Degree-granting, primarily baccalaureate or above",-118.566837,34.39327,6650,5419,70,48660,616,48660,616,2,1098,477,621,7,1001,474,4270727,14176317,262,1221021,22,190224,197,2835683,103,1204427,1688138,49276,49276,California Institute of the Arts,80,80.57,-0.57
111188,California State University Maritime Academy,200 Maritime Academy Dr,Vallejo,CA,94590-8181,7,2,City: Midsize,2,Solano County,"Degree-granting, primarily baccalaureate or above",-122.231551,38.069061,5920,6768,55,5742,1314,17622,1314,2,1110,909,201,13,1050,531,3805829,4992806,311,1636657,71,197042,70,371657,121,852115,836077,7056,18936,California State University Maritime Academy,82,73.70,8.30
111391,California Western School of Law,225 Cedar St,San Diego,CA,92101-3046,9,2,City: Large,1,San Diego County,"Degree-granting, graduate with no undergraduate degrees",-117.162416,32.722192,0,0,0,0,0,0,0,2,671.5,220,403.5,14,584.5,226,1475790,2060116.5,281.5,1167639,12,27016,19,27623,54,342649,1688138,0,0,California Western School of Law,72,71.50,0.50
111434,Canada College,4200 Farm Hill Blvd.,Redwood City,CA,94061-1099,4,2,Suburb: Large,4,San Mateo County,"Degree-granting, Associates and certificates",-122.265398,37.44877,0,0,0,1288,72,7672,72,2,10216,3876,6340,25,6152,58,395651,5071827,690,2522238,132,242603,54,51821,1,3464,631168,1360,7744,Canada College,65,67.19,-2.19
111461,College of the Canyons,26455 Rockwell Canyon Rd,Santa Clarita,CA,91355-1899,3,2,Suburb: Large,4,Los Angeles County,"Degree-granting, Associates and certificates",-118.568698,34.403993,0,0,0,1104,52,7560,52,2,32720,18311,14409,26,20329,359,2162471,23962914,3522,12620134,788,1576562,249,58038,29,138066,3760786,1156,7612,College of the Canyons,76,69.52,6.48
111513,Career Academy of Beauty,12471 Valley View,Garden Grove,CA,92845,2,2,Suburb: Large,6,Orange County,"Nondegree-granting, sub-baccalaureate",-118.031697,33.781018,0,0,0,9450,551,13356,576,2,255,0,255,20,255,151,853974,593299,138,556394,0,0,4,2500,40,246840,1688138,10001,13932,Career Academy of Beauty,87,75.97,11.03
111638,Casa Loma College-Van Nuys,6725 Kester Ave,Van Nuys,CA,91405,3,2,City: Large,4,Los Angeles County,"Degree-granting, Associates and certificates",-118.457781,34.192829,0,0,100,9450,551,13356,576,2,338,140,198,19,338,247,1788389,901887,182,737932,0,0,0,0,10,60479,1688138,10001,13932,Casa Loma College-Van Nuys,30,69.55,-39.55
111708,CET-San Diego,4153 Market Street,San Diego,CA,92102,2,2,City: Large,6,San Diego County,"Nondegree-granting, sub-baccalaureate",-117.105328,32.711302,0,0,100,9450,551,13356,576,2,344,288,56,29,344,110,845173,687543,120,645595,0,0,0,0,63,495794,1688138,10001,13932,CET-San Diego,86,72.55,13.45
111717,CET-San Jose,701 Vine St,San Jose,CA,95110,2,2,City: Large,6,Santa Clara County,"Nondegree-granting, sub-baccalaureate",-121.88698,37.322723,0,0,100,9450,551,13356,576,2,426,252,174,16,426,179,1149842,1452107,205,1072079,0,0,0,0,79,520775,1688138,10001,13932,CET-San Jose,74,72.91,1.09
111726,CET-El Centro,294 S 3rd St,El Centro,CA,92243,2,2,City: Small,6,Imperial County,"Nondegree-granting, sub-baccalaureate",-115.549079,32.790908,0,0,100,9450,551,13356,576,2,396,280,116,18,396,59,361509,2029157,153,805631,3,16633,0,0,25,152123,1688138,10001,13932,CET-El Centro,94,73.78,20.22
111744,CET-Colton,1099 N. Pepper Ave,Colton,CA,92324,2,2,Suburb: Large,6,San Bernardino County,"Nondegree-granting, sub-baccalaureate",-117.353488,34.077381,0,0,100,9450,551,13356,576,2,287,265,22,15,287,140,1034260,993534,156,827734,2,13101,0,0,68,496197,1688138,10001,13932,CET-Colton,86,73.17,12.83
111762,CET-Watsonville,10 Blanca Lane,Watsonville,CA,95076,2,2,City: Small,6,Santa Cruz County,"Nondegree-granting, sub-baccalaureate",-121.767991,36.931833,0,0,100,9450,551,13356,576,2,138,66,72,10,138,22,131115,449264,46,210772,0,0,0,0,10,55981,1688138,10001,13932,CET-Watsonville,82,73.78,8.22
111799,CET-Salinas,24 East Alvin Drive,Salinas,CA,93906,2,2,City: Midsize,6,Monterey County,"Nondegree-granting, sub-baccalaureate",-121.65236,36.707333,0,0,100,9450,551,13356,576,2,218,36,182,32,218,29,175915,804015,69,370481,1,5557,0,0,19,117547,1688138,10001,13932,CET-Salinas,86,74.56,11.44
111887,Cerritos College,11110 Alondra Blvd,Norwalk,CA,90650-6298,4,2,Suburb: Large,4,Los Angeles County,"Degree-granting, Associates and certificates",-118.097337,33.886874,0,0,0,1288,58,8652,58,2,28433,13094,15339,25,21045,592,4095704,49954796,8931,29978372,1370,3291656,400,68035,37,222243,8090165,1346,8710,Cerritos College,72,70.09,1.91
111896,Cerro Coso Community College,3000 College Heights Blvd,Ridgecrest,CA,93555-9571,3,2,Rural: Fringe,4,Kern County,"Degree-granting, Associates and certificates",-117.66767,35.567525,0,0,0,1288,2,7252,2,2,9291,3934,5357,24,5725,0,0,4889224,792,2659780,141,249977,2,2000,0,0,637552,1290,7254,Cerro Coso Community College,62,67.65,-5.65
111920,Chabot College,25555 Hesperian Blvd,Hayward,CA,94545,3,2,City: Midsize,4,Alameda County,"Degree-granting, Associates and certificates",-122.105636,37.642458,0,0,0,0,1142,6600,1142,2,19853,9262,10591,26,13689,126,851179,17634414,2633,10166566,578,1147675,0,0,7,31296,3038408,1142,7742,Chabot College,76,70.58,5.42
111939,Chaffey College,5885 Haven Ave,Rancho Cucamonga,CA,91737-3002,4,2,Suburb: Large,4,San Bernardino County,"Degree-granting, Associates and certificates",-117.573932,34.147663,0,0,0,1104,68,7536,68,2,29808,12199,17609,24,22508,0,0,38118853,6452,21705648,1081,2312288,72,52812,0,0,5949641,1172,7604,Chaffey College,72,70.65,1.35
111948,Chapman University,One University Dr.,Orange,CA,92866,9,2,City: Midsize,2,Orange County,"Degree-granting, primarily baccalaureate or above",-117.852518,33.79302,10900,4928,70,52340,384,52340,384,2,7363,2941,4422,13,6740,3470,22852487,134125984,1292,5761965,237,2088596,1407,34976912,1062,7714709,1688138,52724,52724,Chapman University,90,93.35,-3.35
111966,Charles R Drew University of Medicine and Science,1731 E 120th St,Los Angeles,CA,90059,8,2,Suburb: Large,2,Los Angeles County,"Degree-granting, primarily baccalaureate or above",-118.242791,33.925658,0,0,50,12888,100,12888,100,2,187,70,117,12,138,84,704655,484077,62,259591,7,41352,3,9500,8,57250,1688138,12988,12988,Charles R Drew University of Medicine and Science,53,65.97,-12.97
112075,Concordia University-Irvine,1530 Concordia West,Irvine,CA,92612-3203,9,2,City: Large,2,Orange County,"Degree-granting, primarily baccalaureate or above",-117.812305,33.653665,6510,4790,50,34700,700,34700,700,2,2046,772,1274,16,1853,1118,8227292,27257370,517,2276690,78,580040,328,5838010,208,1393373,1688138,35400,35400,Concordia University-Irvine,78,77.69,0.31
112084,San Diego Christian College,200 Riverview Parkway,Santee,CA,92071,7,2,Suburb: Large,2,San Diego County,"Degree-granting, primarily baccalaureate or above",-116.978112,32.842404,0,0,0,21712,1265,21712,1265,2,752,375,377,8,658,367,2402696,3628041,345,837176,14,82696,66,781498,44,433922,1688138,22977,22977,San Diego Christian College,51,68.62,-17.62
112127,Church Divinity School of the Pacific,2451 Ridge Road,Berkeley,CA,94709-1211,7,2,City: Midsize,1,Alameda County,"Degree-granting, graduate with no undergraduate degrees",-122.261122,37.876184,4840,700,0,0,0,0,0,2,671.5,220,403.5,14,584.5,226,1475790,2060116.5,281.5,1167639,12,27016,19,27623,54,342649,1688138,0,0,Church Divinity School of the Pacific,72,72.22,-0.22
112172,Citrus College,1000 W Foothill Blvd,Glendora,CA,91741-1899,4,2,Suburb: Large,4,Los Angeles County,"Degree-granting, Associates and certificates",-117.885266,34.135487,0,0,0,1104,86,7560,86,2,18733,8477,10256,43,13252,225,1332238,26188739,4124,15236999,929,2180838,2,1500,11,51957,5310159,1190,7646,Citrus College,75,68.00,7.00
112181,Citrus Heights Beauty College,7518 Baird Way,Citrus Heights,CA,95610-1410,2,2,Suburb: Large,6,Sacramento County,"Nondegree-granting, sub-baccalaureate",-121.289529,38.712951,0,0,100,9450,551,13356,576,2,150,2,148,12,150,59,410877,268387,59,268387,0,0,0,0,42,240051,1688138,10001,13932,Citrus Heights Beauty College,80,78.03,1.97
112190,City College of San Francisco,50 Phelan Ave,San Francisco,CA,94112-1898,4,2,City: Large,4,San Francisco County,"Degree-granting, Associates and certificates",-122.451155,37.725953,0,0,0,0,1696,8676,1696,2,38862,17887,20975,24,26299,171,1014768,25253073,3400,13501048,689,1097135,517,205025,9,45888,3362252,1696,10372,City College of San Francisco,73,69.19,3.81
112251,Claremont Graduate University,150 E Tenth St,Claremont,CA,91711-6160,9,2,Suburb: Large,1,Los Angeles County,"Degree-granting, graduate with no undergraduate degrees",-117.713703,34.103585,9588,0,0,0,0,0,0,2,671.5,220,403.5,14,584.5,226,1475790,2060116.5,281.5,1167639,12,27016,19,27623,54,342649,1688138,0,0,Claremont Graduate University,72,72.44,-0.44
112260,Claremont McKenna College,500 E 9th St,Claremont,CA,91711-6400,7,2,Suburb: Large,2,Los Angeles County,"Degree-granting, primarily baccalaureate or above",-117.711188,34.102154,8990,7715,70,54160,245,54160,245,2,1343,702,641,8,1338,296,1434184,25049958,186,885164,39,354734,179,7500935,124,653874,1688138,54405,54405,Claremont McKenna College,96,91.27,4.73
112288,Milan Institute-Visalia,6500 S. Mooney Blvd.,Visalia,CA,93277,2,2,City: Midsize,6,Tulare County,"Nondegree-granting, sub-baccalaureate",-119.312151,36.27164,0,0,0,9450,551,13356,576,2,484,51,433,17,484,341,3618714,1817960,371,1725278,11,76512,0,0,288,1929140,1688138,10001,13932,Milan Institute-Visalia,79,70.67,8.33
112367,Clovis Adult Education,1452 David E Cook Way,Clovis,CA,93611,2,2,Suburb: Large,6,Fresno County,"Nondegree-granting, sub-baccalaureate",-119.690369,36.834459,0,0,0,9450,551,13356,576,2,819,97,722,44,819,0,0,1051073,139,570360,74,187282,0,0,0,0,413938,10001,13932,Clovis Adult Education,63,67.91,-4.91
112376,Coast Community College District Office,1370 Adams Ave.,Costa Mesa,CA,92626,4,2,City: Midsize,-2,Orange County,-2,-117.916066,33.674004,0,0,0,9450,551,13356,576,2,671.5,220,403.5,14,584.5,226,1475790,2060116.5,281.5,1167639,12,27016,19,27623,54,342649,1688138,10001,13932,Coast Community College District Office,72,73.22,-1.22
